1622182391.5965438,"$GPGSA,A,3,25,32,15,24,17,12,19,02,06,10,,,1.37,0.81,1.10*02
"
1622182391.6102238,"$GPGSV,3,1,11,02,06,119,17,06,12,089,33,10,09,262,32,12,76,236,46*7C
"
1622182391.6205597,"!AIVDM,1,1,,B,13ku9T@000PBStnMfr`;DBRH0L>`,0*43
"
1622182391.6308975,"$GPGSV,3,2,11,15,09,174,36,17,15,036,42,19,34,053,39,22,02,351,*75
"
1622182391.6412208,"!AIVDM,1,1,,B,13`eHVP000PBfH8Mfn?s52ND00Ro,0*61
"
1622182391.670954,"$GPGSV,3,3,11,24,62,124,40,25,36,245,37,32,35,304,42*4B
"
1622182391.6849654,"$GPGLL,5157.54295,N,00400.46655,E,061311.00,A,A*64
"
1622182391.7000966,"!AIVDM,1,1,,A,19NSV:501bPB4r6MiiU<49RB0H6m,0*71
"
1622182391.75539,"!AIVDM,1,1,,A,133kjEPP0IPBF:rMfk4bn?vDR4hl,0*21
"
1622182391.8605578,"!AIVDM,1,1,,B,13b?AJ7001PBM>:MasBhBnp2086s,0*7A
"
1622182392.1010294,"!AIVDM,1,1,,A,35Sj<v50000B`@@Mg9PLaoTH0E3J,0*55
"
1622182392.1567576,"!AIVDM,1,1,,B,33`iH`PP00PBNjpMf4G>4?vF25NC,0*15
"
1622182392.2405753,"$GPRMC,061312.00,A,5157.54301,N,00400.46544,E,2.572,276.67,280521,,,A*63
"
1622182392.2811992,"$GPVTG,276.67,T,,M,2.572,N,4.763,K,A*3B
"
1622182392.3360941,"!AIVDM,1,1,,A,33apd60P@RPBJ:BMc2L5gT6H0000,0*1F
"
1622182392.3533444,"$GPGGA,061312.00,5157.54301,N,00400.46544,E,1,10,0.81,1.7,M,45.9,M,,*5B
"
1622182392.403163,"!AIVDM,1,1,,B,402E35QvEN6=<0CRNDMl76W000S:,0*4E
"
1622182392.4171119,"$GPGSA,A,3,25,32,15,24,17,12,19,02,06,10,,,1.37,0.81,1.10*02
"
1622182392.4684622,"!AIVDM,1,1,,B,14Rfh2001NPBN4<MgvETd3fB0@7?,0*23
"
1622182392.485482,"$GPGSV,3,1,11,02,06,119,18,06,12,089,33,10,09,262,32,12,76,236,46*73
"
1622182392.4982214,"!AIVDM,1,1,,A,13=m=t001qPBel4MgJk4SkdH0000,0*79
"
1622182392.5711145,"$GPGSV,3,2,11,15,09,174,34,17,15,036,41,19,34,053,42,22,02,351,*78
"
1622182392.6167583,"!AIVDM,1,1,,B,13aDq7hP00PBQ2fMfon1EOvH20Rm,0*79
"
1622182392.6691022,"$GPGSV,3,3,11,24,62,124,40,25,36,245,40,32,35,304,44*4D
"
1622182392.685978,"!AIVDM,1,1,,B,14R;V20sQj0B>i2Mh@UD2k@J0@7E,0*67
"
1622182392.696536,"$GPGLL,5157.54301,N,00400.46544,E,061312.00,A,A*68
"
1622182392.711176,"!AIVDM,1,1,,A,13aIhvwP00PBFk0MffC@0?vH2H7H,0*40
"
1622182392.7219439,"!AIVDM,1,1,,A,14SF7T0001PBgr<Mfv9uqq8B04hl,0*04
"
1622182392.736107,"!AIVDM,1,1,,B,33`gb9@0000BfBTMfpNDOHPJ0000,0*47
"
1622182392.7520294,"!AIVDM,1,1,,B,18;N@R0002PAGsVMeWu`h62:0L<P,0*16
"
1622182392.7622948,"!AIVDM,1,1,,B,402E35ivEN6=<PAOktMVWhw020S:,0*3A
"
1622182392.7725873,"!AIVDM,1,1,,B,13`pn:0000PBaOJMfOs:G`2F287M,0*1B
"
1622182392.7968998,"!AIVDM,1,1,,B,13bW`0300cPBUKlMj@K7t6HR087N,0*40
"
1622182392.822369,"!AIVDM,1,1,,A,33anGb0013PBCbFMfVuQdAJH0000,0*05
"
1622182392.8774877,"!AIVDM,1,1,,B,33aN`dP01SPB11hMigU;Va8H00uP,0*39
"
1622182392.9280677,"!AIVDM,1,1,,A,33aEOEEP00PBCcRMfTElQww<2DV:,0*5C
"
1622182393.243958,"$GPRMC,061313.00,A,5157.54307,N,00400.46434,E,2.549,277.12,280521,,,A*69
"
1622182393.2879355,"!AIVDM,1,1,,A,13ku;T0tiv0CecHMdM:T6k<J04hl,0*12
"
1622182393.3392825,"$GPVTG,277.12,T,,M,2.549,N,4.720,K,A*37
"
1622182393.3560815,"!AIVDM,2,1,1,A,55Sj<v42?gn?<EM3F20A8E04pu>222222222221@JHQJ@5MG0OlSm51D,0*60
"
1622182393.4065807,"!AIVDM,2,2,1,A,Q0CH88888888880,2*4F
"
1622182393.4209368,"$GPGGA,061313.00,5157.54307,N,00400.46434,E,1,10,0.81,1.6,M,45.9,M,,*5B
"
1622182393.4730697,"$GPGSA,A,3,25,32,15,24,17,12,19,02,06,10,,,1.37,0.81,1.10*02
"
1622182393.489716,"!AIVDM,1,1,,A,13`emQhP00PBlaTMfhg5@wvHR87k,0*40
"
1622182393.5052445,"$GPGSV,3,1,11,02,06,119,22,06,12,089,33,10,09,262,32,12,76,236,46*7A
"
1622182393.5747716,"$GPGSV,3,2,11,15,09,174,34,17,15,036,41,19,34,053,38,22,02,351,*75
"
1622182393.6205215,"!AIVDM,1,1,,A,13aJH3@P00PBQ0FMegh>4?vJ2@7r,0*48
"
1622182393.6728022,"$GPGSV,3,3,11,24,62,124,40,25,36,245,40,32,35,304,43*4A
"
1622182393.689372,"!AIVDM,1,1,,B,18SJNLP01DPBbWtMge>T93BJ04hl,0*56
"
1622182393.7001097,"$GPGLL,5157.54307,N,00400.46434,E,061313.00,A,A*69
"
1622182393.7120914,"!AIVDM,1,1,,B,13aC4g@P000BBWlMfpuP0?vH087u,0*48
"
1622182393.861272,"!AIVDM,1,1,,B,13cF0h001A0BgA<MgW0DOCRL0D=J,0*5A
"
1622182393.8862152,"!AIVDM,1,1,,B,13aB;@0000PBgS2Mfw1D5q6L0@87,0*03
"
1622182393.9817598,"!AIVDM,1,1,,A,13a;pr002QPArprMhgqSt3>J00Sb,0*1C
"
1622182393.9966602,"!AIVDM,1,1,,B,13aBNA@P10PBrG8MgBAbqOvJ2H8;,0*35
"
1622182394.0217652,"!AIVDM,1,1,,A,13aJHv@P00PBnslMffgP0?vJ288<,0*05
"
1622182394.182077,"!AIVDM,1,1,,B,402Dw?1vEN6==0Ad3pMaM=?02@8B,0*68
"
1622182394.242607,"$GPRMC,061314.00,A,5157.54331,N,00400.46337,E,2.477,276.60,280521,,,A*67
"
1622182394.2826548,"$GPVTG,276.60,T,,M,2.477,N,4.588,K,A*3F
"
1622182394.3428905,"$GPGGA,061314.00,5157.54331,N,00400.46337,E,1,10,0.81,2.0,M,45.9,M,,*58
"
1622182394.4039044,"!AIVDM,1,1,,A,33aQfUOP00PBGh8Mfj`f4?vL2C<k,0*6F
"
1622182394.4183216,"$GPGSA,A,3,25,32,15,24,17,12,19,02,06,10,,,1.37,0.81,1.10*02
"
1622182394.4718444,"!AIVDM,1,1,,A,13P;tLPP340B34JMgfnj5gvN0L4r,0*57
"
1622182394.4889345,"!AIVDM,1,1,,B,13dn=000000BtwDMfp6I8Q8H0@8J,0*2A
"
1622182394.5049548,"$GPGSV,3,1,11,02,06,119,25,06,12,089,34,10,09,262,33,12,76,236,46*7B
"
1622182394.5155404,"!AIVDM,1,1,,B,13a5Jn0Oj9PBiUBMgUFcA8pH2H8L,0*02
"
1622182394.5745718,"$GPGSV,3,2,11,15,09,174,34,17,15,036,40,19,34,053,39,22,02,351,22*75
"
1622182394.620393,"$GPGSV,3,3,11,24,62,124,40,25,36,245,42,32,35,304,41*4A
"
1622182394.6701007,"!AIVDM,1,1,,B,13aDAwhP00PBAPlMfS=Bp?vLR88R,0*11
"
1622182394.6869576,"$GPGLL,5157.54331,N,00400.46337,E,061314.00,A,A*6F
"
1622182394.6976335,"!AIVDM,1,1,,B,13euk20000PBvALMfPUP2VpJ00S;,0*4F
"
1622182394.9292834,"!AIVDM,1,1,,B,33euWD:Oh2PBlwHMg32SQ5NL0131,0*55
"
1622182395.2443037,"$GPRMC,061315.00,A,5157.54348,N,00400.46238,E,2.514,276.00,280521,,,A*64
"
1622182395.2871602,"!AIVDM,1,1,,B,3341RJUP05PBOnNMg7:ru?vN2E;b,0*4C
"
1622182395.3398297,"$GPVTG,276.00,T,,M,2.514,N,4.656,K,A*3D
"
1622182395.350357,"!AIVDM,1,1,,A,13aKWAoP00PBQ2fMegkf4?vN2H8s,0*70
"
1622182395.41129,"$GPGGA,061315.00,5157.54348,N,00400.46238,E,1,10,0.81,2.2,M,45.9,M,,*5B
"
1622182395.4738584,"$GPGSA,A,3,25,32,15,24,17,12,19,02,06,10,,,1.37,0.81,1.10*02
"
1622182395.4985619,"$GPGSV,3,1,11,02,06,119,25,06,12,089,33,10,09,262,34,12,76,236,46*7B
"
1622182395.5093272,"!AIVDM,1,1,,B,13aC2V@P0G0BNP:MfgjjhOvLPD5p,0*50
"
1622182395.519944,"!AIVDM,1,1,,B,15EJ6@0w1H0A=v>MmgeG1URL0H94,0*08
"
1622182395.576401,"$GPGSV,3,2,11,15,09,174,34,17,15,036,38,19,34,053,39,22,02,351,19*72
"
1622182395.6207027,"!AIVDM,1,1,,B,138CQ>0Oi9P@a?nMfJUANQlJ04hl,0*70
"
1622182395.672194,"$GPGSV,3,3,11,24,62,124,40,25,36,245,43,32,35,304,42*48
"
1622182395.6857548,"$GPGLL,5157.54348,N,00400.46238,E,061315.00,A,A*6E
"
1622182395.7292101,"!AIVDM,1,1,,A,33ev>H0Ohs0BQgPMfF0:N8pJ011i,0*41
"
1622182395.7907448,"!AIVDM,2,1,2,A,538CQ>02A;h?D9QC800pu8@T>0P4l9E8L0000017Ah:<<5Mb0D3S4U3@,0*63
"
1622182395.801207,"!AIVDM,2,2,2,A,000000000000000,2*26
"
1622182395.8609223,"!AIVDM,1,1,,B,13JNv:0P000Bv78MfQ<2q?vP0@9A,0*10
"
1622182395.9157333,"!AIVDM,1,1,,B,33apd60P@QPBJ;:Mc2FmUT2N00r@,0*36
"
1622182396.046203,"!AIVDM,1,1,,B,402Dw?1vEN6=?0Ad32MaMAg02L=P,0*17
"
1622182396.1015172,"!AIVDM,1,1,,A,13aB:A0P00PBN9HMfsgv4?vP2@9J,0*54
"
1622182396.2423172,"$GPRMC,061316.00,A,5157.54361,N,00400.46138,E,2.498,275.75,280521,,,A*6B
"
1622182396.2856112,"!AIVDM,1,1,,B,35SUwf37h`0@sgHMduE=L:fN027P,0*0B
"
1622182396.3391502,"$GPVTG,275.75,T,,M,2.498,N,4.626,K,A*3E
"
1622182396.35426,"$GPGGA,061316.00,5157.54361,N,00400.46138,E,1,10,0.81,2.5,M,45.9,M,,*57
"
1622182396.4050727,"!AIVDM,1,1,,B,13e>cJ00010Bmj4Mg1=nR@tN0<?k,0*2D
"
1622182396.4194565,"$GPGSA,A,3,25,32,15,24,17,12,19,02,06,10,,,1.37,0.81,1.10*02
"
1622182396.4725533,"!AIVDM,1,1,,A,13aC2d0P00PBT44MfjPv4?vP2<6H,0*4C
"
1622182396.489078,"!AIVDM,1,1,,B,13aI9:@P06PBl7LMfoJmdgvP2<9T,0*3A
"
1622182396.505684,"$GPGSV,3,1,11,02,06,119,26,06,12,089,33,10,09,262,34,12,76,236,45*7B
"
1622182396.5163655,"!AIVDM,1,1,,B,33anGb0Oi3PBCdfMfW9QeALN00rP,0*69
"
1622182396.5743432,"$GPGSV,3,2,11,15,09,174,34,17,15,036,41,19,34,053,42,22,02,351,*78
"
1622182396.6196496,"!AIVDM,1,1,,A,33a5Jn0Oj9PBiQVMgULK9HvL218@,0*4E
"
1622182396.671104,"$GPGSV,3,3,11,24,62,124,40,25,36,245,43,32,35,304,43*49
"
1622182396.6872885,"$GPGLL,5157.54361,N,00400.46138,E,061316.00,A,A*65
"
1622182396.6979175,"!AIVDM,1,1,,B,13aD@N@P00PBMPJMf8Qv4?vP289g,0*14
"
1622182396.7942054,"!AIVDM,1,1,,A,33`hCB060RPBb7lMfvqL09tR00QP,0*2E
"
1622182397.0262055,"!AIVDM,2,1,2,B,538CQ>02A;h?D9QC800pu8@T>0P4l9E8L0000017Ah:<<5Mb0D3S4U3@,0*60
"
1622182397.037017,"!AIVDM,2,2,2,B,000000000000000,2*25
"
1622182397.1153953,"!AIVDM,1,1,,B,13bnM>3P@5PBK:lMgqQCm3NP0D<P,0*50
"
1622182397.2434864,"$GPRMC,061317.00,A,5157.54371,N,00400.46035,E,2.520,275.29,280521,,,A*6C
"
1622182397.2841074,"$GPVTG,275.29,T,,M,2.520,N,4.668,K,A*3F
"
1622182397.343902,"$GPGGA,061317.00,5157.54371,N,00400.46035,E,1,10,0.81,2.6,M,45.9,M,,*58
"
1622182397.4063997,"$GPGSA,A,3,25,32,15,24,17,12,19,02,06,10,,,1.37,0.81,1.10*02
"
1622182397.4754014,"$GPGSV,3,1,11,02,06,119,26,06,12,089,32,10,09,262,34,12,76,236,46*79
"
1622182397.5750237,"$GPGSV,3,2,11,15,09,174,31,17,15,036,41,19,34,053,40,22,02,351,*7F
"
1622182397.6207218,"!AIVDM,1,1,,B,33`hCB06@SPBb7LMfvrsvatT0100,0*58
"
1622182397.6730034,"$GPGSV,3,3,11,24,62,124,40,25,36,245,43,32,35,304,43*49
"
1622182397.689625,"!AIVDM,1,1,,A,133vrmPP00PC3cJMehO00?vR2<3g,0*39
"
1622182397.7002478,"$GPGLL,5157.54371,N,00400.46035,E,061317.00,A,A*69
"
1622182397.7120736,"!AIVDM,1,1,,B,13bDQF7P?w<tSF0l4Q@>4?wv1PRm,0*77
"
1622182397.756034,"!AIVDM,1,1,,B,13`oU`P004PBMvdMfh1VDjJP0H:H,0*2E
"
1622182397.8050125,"!AIVDM,1,1,,A,13aJI600000BMbVMfkwt5DvR08:J,0*15
"
1622182397.8854177,"!AIVDM,1,1,,B,13ae9l0OiIPCiSvMdDsE9T8R0p:M,0*1D
"
1622182398.0062177,"!AIVDM,1,1,,B,13aSQ700000BbC0MfQImsrjT0@:Q,0*6A
"
1622182398.101999,"!AIVDM,1,1,,B,13aJHHhP0nPBtj@Mg2lU8gvT24hl,0*78
"
1622182398.24239,"$GPRMC,061318.00,A,5157.54385,N,00400.45930,E,2.499,275.13,280521,,,A*6D
"
1622182398.285072,"!AIVDM,1,1,,B,33`j8:0P00PBk5JMf1h>4?vT2C7k,0*03
"
1622182398.3385725,"$GPVTG,275.13,T,,M,2.499,N,4.629,K,A*30
"
1622182398.3539398,"$GPGGA,061318.00,5157.54385,N,00400.45930,E,1,10,0.81,2.8,M,45.9,M,,*5D
"
1622182398.4100971,"!AIVDM,2,1,3,B,53bW`042<Pc50<Q2220P4n3?7N2222222222220Q3I6:9=F80;R2n`14,0*67
"
1622182398.4720917,"!AIVDM,2,2,3,B,QA1jCQh00000000,2*25
"
1622182398.482744,"!AIVDM,1,1,,B,18153v@000PBm88Mg26aESTP04hl,0*3F
"
1622182398.4974098,"$GPGSA,A,3,25,32,15,24,17,12,19,02,06,10,,,1.37,0.81,1.10*02
"
1622182398.514181,"$GPGSV,3,1,11,02,06,119,26,06,12,089,32,10,09,262,34,12,76,236,46*79
"
1622182398.5689023,"!AIVDM,1,1,,B,33a5Jn0PB:PBiMpMgUQcB8vP20V0,0*7E
"
1622182398.617915,"!AIVDM,1,1,,B,13dqcb53AG0B6URMiKNt9a`T0h:j,0*41
"
1622182398.6776857,"$GPGSV,3,2,11,15,09,174,35,17,15,036,41,19,34,053,40,22,02,351,*7B
"
1622182398.6883993,"$GPGSV,3,3,11,24,62,124,39,25,36,245,44,32,35,304,44*47
"
1622182398.7005374,"$GPGLL,5157.54385,N,00400.45930,E,061318.00,A,A*62
"
1622182398.767801,"!AIVDM,1,1,,B,13=m=t001qPBetvMgJLTSSdT0000,0*43
"
1622182398.792703,"!AIVDM,1,1,,B,33`gb9@0000BfBbMfpMmn`PV010A,0*3E
"
1622182398.8481197,"!AIVDM,1,1,,A,14S0lB00000Bgj`MfvRPJ9>V08;1,0*37
"
1622182398.9533799,"!AIVDM,1,1,,A,338CQ>0Oi9P@aBlMfJkQWAlR01u0,0*75
"
1622182398.9834783,"!AIVDM,1,1,,B,13`jg:w0010BOunMfDe<>`2TP4hl,0*7E
"
1622182399.063722,"!AIVDM,1,1,,B,13AiRH3001PAiQFMb=AM9kbV04hl,0*00
"
1622182399.1691084,"!AIVDM,1,1,,B,13lBIT00100B0OHMijAcwaHT0<<P,0*56
"
1622182399.2451944,"$GPRMC,061319.00,A,5157.54399,N,00400.45830,E,2.492,274.52,280521,,,A*6F
"
1622182399.2880359,"!AIVDM,1,1,,A,13bG1P00000BOV6MahT3a9dV0@;?,0*00
"
1622182399.3412545,"$GPVTG,274.52,T,,M,2.492,N,4.616,K,A*33
"
1622182399.3518832,"!AIVDM,1,1,,B,133h8j0P000BQDnMac3f4?vV00Sn,0*4B
"
1622182399.411682,"$GPGGA,061319.00,5157.54399,N,00400.45830,E,1,10,0.81,3.1,M,45.9,M,,*58
"
1622182399.475215,"$GPGSA,A,3,25,32,15,24,17,12,19,02,06,10,,,1.37,0.81,1.10*02
"
1622182399.4995663,"$GPGSV,3,1,11,02,06,119,26,06,12,089,32,10,09,262,34,12,76,236,47*78
"
1622182399.5102425,"!AIVDM,1,1,,B,33aN`dP01TPB0sPMigv;a9<T0000,0*34
"
1622182399.5209973,"!AIVDM,1,1,,A,13`e?c0P00PBQSnMfpOf4?vV28;J,0*41
"
1622182399.5767262,"$GPGSV,3,2,11,15,09,174,35,17,15,036,40,19,34,053,42,22,02,351,*78
"
1622182399.6233742,"$GPGSV,3,3,11,24,62,124,40,25,36,245,45,32,35,304,44*48
"
1622182399.672291,"$GPGLL,5157.54399,N,00400.45830,E,061319.00,A,A*6F
"
1622182399.68391,"!AIVDM,1,1,,A,13aG7b001C0BjudMgC1;T9FT0@;O,0*34
"
1622182399.7000425,"!AIVDM,1,1,,A,33apd60P@QPBJ<HMc2@5KSvV00q1,0*29
"
1622182399.7795355,"!AIVDM,1,1,,B,13aGsl:P00PBasvMfeoTOOwjR0Rq,0*2B
"
1622182399.810194,"!AIVDM,1,1,,B,13aBKS@P00PBpSHMgLs`D?vV24hl,0*59
"
1622182399.890815,"!AIVDM,1,1,,A,19NSQQh000PC31hMf8g07;<`0@;`,0*2D
"
1622182399.9310565,"!AIVDM,1,1,,B,13a;pr022QPAs6<Mhgeks3>V00SP,0*11
"
1622182400.0764806,"!AIVDM,1,1,,B,13P;tLPP360B3A@MggdR0Ov`0D4r,0*11
"
1622182400.180951,"!AIVDM,1,1,,B,33aD@85P000BN7NMf2;00?vT0E4r,0*54
"
1622182400.2443013,"$GPRMC,061320.00,A,5157.54411,N,00400.45731,E,2.485,274.52,280521,,,A*6A
"
1622182400.2869248,"!AIVDM,1,1,,A,402E3MAvEN6=CPBlo>MgVLQ020S:,0*4A
"
1622182400.3397543,"$GPVTG,274.52,T,,M,2.485,N,4.603,K,A*31
"
1622182400.3551097,"$GPGGA,061320.00,5157.54411,N,00400.45731,E,1,10,0.81,3.3,M,45.9,M,,*59
"
1622182400.4076622,"$GPGSA,A,3,25,32,15,24,17,12,19,02,06,10,,,1.37,0.81,1.10*02
"
1622182400.421601,"!AIVDM,1,1,,A,33`hCB06@RPBb6dMfvud4b0b01r@,0*62
"
1622182400.473731,"!AIVDM,1,1,,A,33anGb0Oi3PBCgHMfWFQfQNV00lQ,0*2E
"
1622182400.490433,"$GPGSV,3,1,11,02,06,119,26,06,12,089,33,10,09,262,35,12,76,236,46*79
"
1622182400.506869,"!AIVDM,1,1,,B,13aGtpPP00PBMjRMf>ihEOv`2L3S,0*74
"
1622182400.5173194,"!AIVDM,1,1,,A,13aGsOmP17PBal0Mf6CRn?vb2D7u,0*57
"
1622182400.5755756,"$GPGSV,3,2,11,15,09,174,35,17,15,036,39,19,34,053,41,22,02,351,*75
"
1622182400.620726,"!AIVDM,1,1,,A,13Qg1H002j0As<:Mm0`M`blV04hl,0*32
"
1622182400.672306,"$GPGSV,3,3,11,24,62,124,41,25,36,245,45,32,35,304,46*4B
"
1622182400.6888473,"$GPGLL,5157.54411,N,00400.45731,E,061320.00,A,A*6C
"
1622182400.6993725,"!AIVDM,1,1,,A,35SUwf36P`0@sgHMduf=L:l`00vP,0*75
"
1622182400.715093,"!AIVDM,1,1,,B,133eQ:PP00PBS3:Meo9>4?v`R0RP,0*6F
"
1622182400.861431,"!AIVDM,2,1,4,B,53aD@80000010;;GC0118tq@t00000000000001?<@<8440000888888,0*03
"
1622182400.8720157,"!AIVDM,2,2,4,B,888888888888880,2*23
"
1622182400.954996,"!AIVDM,1,1,,A,13aDrChP1D0BTm4Mg0QT`OvV08<@,0*66
"
1622182401.0360453,"!AIVDM,1,1,,A,13b?AJ7001PBM>:MasBh0VpD00S=,0*66
"
1622182401.06121,"!AIVDM,1,1,,A,13`pn:0000PBaOTMfOubLH2V20T2,0*7F
"
1622182401.2459948,"$GPRMC,061321.00,A,5157.54424,N,00400.45635,E,2.494,274.41,280521,,,A*6A
"
1622182401.2885203,"!AIVDM,1,1,,B,133kjEPP0HPBF7@Mfk4be?v`R0Sh,0*08
"
1622182401.3412282,"$GPVTG,274.41,T,,M,2.494,N,4.619,K,A*38
"
1622182401.3560581,"$GPGGA,061321.00,5157.54424,N,00400.45635,E,1,10,0.81,3.6,M,45.9,M,,*5E
"
1622182401.4083333,"!AIVDM,1,1,,B,33aDqWmP00PBOhTMg6jf4?vb2Der,0*14
"
1622182401.4225686,"$GPGSA,A,3,25,32,15,24,17,12,19,02,06,10,,,1.37,0.81,1.10*02
"
1622182401.474223,"!AIVDM,1,1,,A,13aFdD@P1CPBjQpMgBKsPwvb2H<P,0*6D
"
1622182401.4907854,"!AIVDM,1,1,,A,13`iH`PP01PBNjpMf4Gf4?vb2H<Q,0*74
"
1622182401.5028243,"$GPGSV,3,1,11,02,06,119,25,06,12,089,33,10,09,262,34,12,76,236,45*78
"
1622182401.576981,"$GPGSV,3,2,11,15,09,174,35,17,15,036,37,19,34,053,40,22,02,351,*7A
"
1622182401.623882,"$GPGSV,3,3,11,24,62,124,40,25,36,245,45,32,35,304,45*49
"
1622182401.672908,"$GPGLL,5157.54424,N,00400.45635,E,061321.00,A,A*6E
"
1622182401.6843672,"!AIVDM,1,1,,A,13bW`0300cPBUIVMj@1GuFFl00Rd,0*77
"
1622182401.7307863,"!AIVDM,1,1,,B,13aI::0P1=PBM1PMgD7KK?vb20RR,0*2D
"
1622182401.7799914,"!AIVDM,1,1,,B,13aL?0W000PBLr6MatOJKVnb0H<g,0*17
"
1622182401.8362377,"!AIVDM,1,1,,B,83aD@80j2d<dtt=<<j9Pqga@0000,0*2E
"
1622182401.8611462,"!AIVDM,1,1,,A,13ku9T@000PBStdMfracDBRd00SU,0*1B
"
1622182401.9663584,"!AIVDM,1,1,,A,13`eHVP000PBfH8Mfn@<g2Nb0D<M,0*1E
"
1622182402.05775,"!AIVDM,2,1,5,B,5380RH42=3QCD95G>20<tpl5:0Dh8F2222222216>p>995MT0=SS4U3H,0*5B
"
1622182402.068373,"!AIVDM,2,2,5,B,888888888888880,2*22
"
1622182402.0789402,"!AIVDM,1,1,,B,33euWD:Oh1PBlwdMg32SL5Tb011h,0*08
"
1622182402.1272874,"!AIVDM,1,1,,B,33apd60P@QPBJ=2Mc2=5FStb0000,0*57
"
1622182402.1823199,"!AIVDM,1,1,,B,19NSV:501`PB4ePMijI<59R`0<=3,0*1C
"
1622182402.2443502,"$GPRMC,061322.00,A,5157.54434,N,00400.45539,E,2.528,274.10,280521,,,A*65
"
1622182402.2849348,"$GPVTG,274.10,T,,M,2.528,N,4.682,K,A*38
"
1622182402.34466,"$GPGGA,061322.00,5157.54434,N,00400.45539,E,1,10,0.81,3.8,M,45.9,M,,*5D
"
1622182402.4065444,"!AIVDM,1,1,,A,402E35QvEN6=F0CRNDMl76W004hl,0*5E
"
1622182402.4205954,"$GPGSA,A,3,25,32,15,24,17,12,19,02,06,10,,,1.37,0.81,1.10*02
"
1622182402.4742846,"!AIVDM,1,1,,B,13aDBIEP00PBpWLMgL>f4?vd22b6,0*16
"
1622182402.4905713,"$GPGSV,3,1,11,02,06,119,26,06,12,089,33,10,09,262,35,12,76,236,46*79
"
1622182402.507506,"!AIVDM,1,1,,A,14Rfh2001NPBNA0MgujTd3f`04hl,0*2F
"
1622182402.518052,"!AIVDM,1,1,,B,33a5Jn0Oj9PBiFdMgUfsBHt`21;0,0*5C
"
1622182402.576222,"$GPGSV,3,2,11,15,09,174,35,17,15,036,35,19,34,053,41,22,02,351,*79
"
1622182402.621321,"!AIVDM,1,1,,B,13aIhvwP00PBFjdMffC@0?vd20S6,0*58
"
1622182402.6729374,"$GPGSV,3,3,11,24,62,124,41,25,36,245,45,32,35,304,44*49
"
1622182402.689614,"$GPGLL,5157.54434,N,00400.45539,E,061322.00,A,A*63
"
1622182402.7058363,"!AIVDM,1,1,,A,E>jMjeQWT;9gQ9PgQ7a9aRV2P0006wha>jan8n0ht;v000,4*04
"
1622182402.722898,"!AIVDM,1,1,,B,33anGb0Oi3PBChvMfWNQgANd0000,0*0A
"
1622182402.733478,"!AIVDM,1,1,,A,402E35ivEN6=FPAOkvMVWi?020S:,0*08
"
1622182402.7442331,"!AIVDM,1,1,,A,33ev>H0Ohj0BQdHMfF0:Pa`b00w@,0*52
"
1622182402.9833775,"!AIVDM,1,1,,A,13aDq7hP00PBQ2fMfon1EOvd2<3w,0*21
"
1622182402.9998944,"!AIVDM,1,1,,B,338CQ>0Oi9P@aELMfK2QWipb00w0,0*0E
"
1622182403.0105488,"!AIVDM,1,1,,A,33aN`dPOiQPB0m@Migv;a9>d00vh,0*37
"
1622182403.2494407,"$GPRMC,061323.00,A,5157.54445,N,00400.45442,E,2.501,273.60,280521,,,A*64
"
1622182403.2898784,"$GPVTG,273.60,T,,M,2.501,N,4.632,K,A*38
"
1622182403.348583,"$GPGGA,061323.00,5157.54445,N,00400.45442,E,1,10,0.81,4.1,M,45.9,M,,*59
"
1622182403.4111874,"!AIVDM,1,1,,B,25SUwf360a0@sgHMduf=L:nf0H=a,0*10
"
1622182403.425451,"$GPGSA,A,3,25,32,15,24,17,12,19,02,06,10,,,1.37,0.81,1.10*02
"
1622182403.486199,"$GPGSV,3,1,11,02,06,119,26,06,12,089,32,10,09,262,35,12,76,236,46*78
"
1622182403.496981,"!AIVDM,1,1,,A,13cF0h001@0BgJ`MgVbDSCRh0@=f,0*4C
"
1622182403.5794473,"$GPGSV,3,2,11,15,09,174,37,17,15,036,39,19,34,053,38,22,02,351,*79
"
1622182403.625363,"!AIVDM,1,1,,A,13aB;@0000PBgS2Mfw1D5q6h04hl,0*5B
"
1622182403.6778069,"$GPGSV,3,3,11,24,62,124,42,25,36,245,45,32,35,304,45*4B
"
1622182403.694164,"!AIVDM,1,1,,A,33e>0L0w0vPC;cHMenMm3T4p0BGM,0*3E
"
1622182403.7047853,"$GPGLL,5157.54445,N,00400.45442,E,061323.00,A,A*69
"
1622182403.7191856,"!AIVDM,1,1,,B,13aJH3@P00PBQ0`Megiv4?vf2D6:,0*45
"
1622182403.729954,"!AIVDM,1,1,,A,13aC4g@P000BBWlMfpuP0?vd0<3w,0*65
"
1622182403.7553816,"!AIVDM,1,1,,A,14R;V20uAj0B?2>Mh@@443@h0@=q,0*03
"
1622182403.8356524,"!AIVDM,1,1,,B,13aQfUOP00PBGhBMfjd>4?vf24hl,0*46
"
1622182403.8612597,"!AIVDM,1,1,,A,18;N@R0003PAGsJMeWsqDF2P0@=u,0*01
"
1622182403.8912292,"!AIVDM,1,1,,B,14`aiM0vhiPBqtDMfS<79Udh88=t,0*4B
"
1622182403.9956574,"!AIVDM,1,1,,A,13aLl;0P00PBmpVMg0000?vf2<1g,0*3A
"
1622182404.0762002,"!AIVDM,1,1,,B,35Dpu:1000P@NcdMngP;E5nf0000,0*57
"
1622182404.181412,"!AIVDM,1,1,,A,402Dw?1vEN6=G0Ad3pMaM=?02@>9,0*6C
"
1622182404.244045,"$GPRMC,061324.00,A,5157.54457,N,00400.45342,E,2.490,273.73,280521,,,A*6C
"
1622182404.2846317,"$GPVTG,273.73,T,,M,2.490,N,4.611,K,A*32
"
1622182404.3389802,"!AIVDM,1,1,,A,33a5Jn0Oj9PBiC4MgUmKB8vd20Uh,0*78
"
1622182404.3564641,"$GPGGA,061324.00,5157.54457,N,00400.45342,E,1,10,0.81,4.3,M,45.9,M,,*58
"
1622182404.406641,"$GPGSA,A,3,25,32,15,24,17,12,19,02,06,10,,,1.37,0.81,1.10*02
"
1622182404.4205234,"!AIVDM,1,1,,B,33`hCB05PQPBb5@Mfw4L@J2j011P,0*3B
"
1622182404.4735162,"!AIVDM,1,1,,B,33a9@t7000PBMtVMapf@06nh2B8C,0*42
"
1622182404.4903672,"$GPGSV,3,1,11,02,06,119,27,06,12,089,32,10,09,262,36,12,76,236,46*7A
"
1622182404.5021884,"!AIVDM,1,1,,A,18SJNLP01EPBbkPMgdu4;SBd0D<P,0*32
"
1622182404.5750642,"$GPGSV,3,2,11,15,09,174,35,17,15,036,39,19,34,053,38,22,02,351,*7B
"
1622182404.6207585,"!AIVDM,1,1,,A,13=m=t001pPBf5dMgJ5TTSdh0000,0*53
"
1622182404.6721644,"$GPGSV,3,3,11,24,62,124,42,25,36,245,45,32,35,304,44*4A
"
1622182404.6888921,"$GPGLL,5157.54457,N,00400.45342,E,061324.00,A,A*6A
"
1622182404.6995776,"!AIVDM,1,1,,A,13aDAwhP00PBAPlMfS=Bp?vhR8>J,0*28
"
1622182404.7146175,"!AIVDM,1,1,,A,13aBNA@P0iPBr>6MgBE:jgvh2D7r,0*1E
"
1622182404.7400699,"!AIVDM,1,1,,A,15EJ6@0wAH0A=vTMmfn6u5Rf04hl,0*11
"
1622182404.8204186,"!AIVDM,1,1,,B,13aKWAoP00PBQ2fMeglN4?vh28>Q,0*2E
"
1622182404.8754666,"!AIVDM,1,1,,A,13euk20000PBvALMfPUP2Vpf00S=,0*66
"
1622182404.9800215,"!AIVDM,1,1,,A,138CQ>0Oi9P@aG0MfK91dApf00SB,0*53
"
1622182405.2449079,"$GPRMC,061325.00,A,5157.54469,N,00400.45235,E,2.556,274.15,280521,,,A*6D
"
1622182405.2861984,"$GPVTG,274.15,T,,M,2.556,N,4.734,K,A*38
"
1622182405.3459294,"$GPGGA,061325.00,5157.54469,N,00400.45235,E,1,10,0.81,4.4,M,45.9,M,,*52
"
1622182405.407168,"!AIVDM,1,1,,A,138nCj002Q0Alt`Mq>QeMrdf0<37,0*32
"
1622182405.4219494,"$GPGSA,A,3,25,32,15,24,17,12,19,02,06,10,,,1.37,0.81,1.10*02
"
1622182405.4831443,"$GPGSV,3,1,11,02,06,119,27,06,12,089,33,10,09,262,33,12,76,236,46*7E
"
1622182405.4938533,"!AIVDM,1,1,,B,13`kDoh00sPBW7@Mjji7RV4d0<6I,0*1A
"
1622182405.5764365,"$GPGSV,3,2,11,15,09,174,36,17,15,036,36,19,34,053,39,22,02,351,*76
"
1622182405.6224453,"!AIVDM,1,1,,B,13Qg1H002j0As:<Mm1He`Jlh00SW,0*22
"
1622182405.6744702,"$GPGSV,3,3,11,24,62,124,42,25,36,245,44,32,35,304,44*4B
"
1622182405.6911035,"!AIVDM,1,1,,B,13dawh0wAMP@El2Mn2lh`hRN0L<O,0*73
"
1622182405.7017107,"$GPGLL,5157.54469,N,00400.45235,E,061325.00,A,A*67
"
1622182405.783176,"!AIVDM,1,1,,A,33apd60P@QPBJ>FMc26mAStj00wh,0*60
"
1622182405.943414,"!AIVDM,1,1,,A,13`jc`@P1EPBpF4Mg0KET?vj28?;,0*34
"
1622182405.9935613,"!AIVDM,1,1,,A,33anGb0013PBCk:MfW`ihiPj0120,0*43
"
1622182406.0228457,"!AIVDM,1,1,,A,13`oU`P006PBMvvMfgvF3jHh0D68,0*58
"
1622182406.0484803,"!AIVDM,1,1,,A,402Dw?1vEN6=I0Ad2vMaMAw02L=f,0*01
"
1622182406.1137435,"!AIVDM,1,1,,A,13a;pr022QPAsCLMhgQCtC>j0H?D,0*40
"
1622182406.1840613,"!AIVDM,1,1,,A,13P;tLPP330B3NJMghKR5?vl04hl,0*79
"
1622182406.2441103,"$GPRMC,061326.00,A,5157.54482,N,00400.45126,E,2.482,273.63,280521,,,A*64
"
1622182406.2871034,"!AIVDM,1,1,,B,33ev>H0Ohe0BQa@MfF0:S:2f010i,0*32
"
1622182406.3394015,"$GPVTG,273.63,T,,M,2.482,N,4.596,K,A*3C
"
1622182406.3546927,"$GPGGA,061326.00,5157.54482,N,00400.45126,E,1,10,0.81,4.5,M,45.9,M,,*54
"
1622182406.4069383,"$GPGSA,A,3,25,32,15,24,17,12,19,02,06,10,,,1.37,0.81,1.10*02
"
1622182406.4209087,"!AIVDM,1,1,,B,133vrmPP00PC3cNMehN@0?vl20S@,0*3A
"
1622182406.4771607,"$GPGSV,3,1,11,02,06,119,27,06,12,089,33,10,09,262,34,12,76,236,46*79
"
1622182406.5753925,"$GPGSV,3,2,11,15,09,174,36,17,15,036,38,19,34,053,39,22,02,351,*78
"
1622182406.6226199,"$GPGSV,3,3,11,24,62,124,42,25,36,245,44,32,35,304,44*4B
"
1622182406.6725702,"!AIVDM,1,1,,A,33euWD:Oh1PBlwdMg32SNU`l00li,0*0E
"
1622182406.6835632,"$GPGLL,5157.54482,N,00400.45126,E,061326.00,A,A*60
"
1622182406.7155163,"!AIVDM,1,1,,A,13aC2V@P0H0BNSjMfgqBPOvjP8?`,0*44
"
1622182406.770656,"!AIVDM,1,1,,A,13aoiP00000BpS2MgMQf40Jl0<5@,0*7B
"
1622182406.7953672,"!AIVDM,1,1,,B,13aB:A0P04PBN8`MfshVNwvl2<80,0*5C
"
1622182406.8478615,"!AIVDM,1,1,,A,13bDQF7P?w<tSF0l4Q@>4?wv1PS7,0*2F
"
1622182406.8583188,"!AIVDM,1,1,,B,13aDpf0P00PBSBTMfr9tBwvn24hl,0*18
"
1622182406.9803739,"!AIVDM,1,1,,A,13bnM>3Oh4PBK;JMgqPSq3Tl0<<P,0*11
"
1622182407.0060952,"!AIVDM,1,1,,B,13a5Jn0Oj:PBi=PMgUuc@q4j24hl,0*6A
"
1622182407.0867362,"!AIVDM,1,1,,B,13aC2d0P00PBT42MfjOf4?vn2@?n,0*2B
"
1622182407.2452013,"$GPRMC,061327.00,A,5157.54493,N,00400.45016,E,2.496,273.54,280521,,,A*66
"
1622182407.2878242,"!AIVDM,1,1,,B,33aN1ImP00PBBD8Mf`f00?vn2Dj:,0*4F
"
1622182407.3403053,"$GPVTG,273.54,T,,M,2.496,N,4.622,K,A*31
"
1622182407.3556228,"$GPGGA,061327.00,5157.54493,N,00400.45016,E,1,10,0.81,4.5,M,45.9,M,,*57
"
1622182407.409928,"$GPGSA,A,3,25,32,15,24,17,12,19,02,06,10,,,1.37,0.81,1.10*02
"
1622182407.4827914,"$GPGSV,3,1,11,02,06,119,27,06,12,089,33,10,09,262,34,12,76,236,46*79
"
1622182407.4935405,"!AIVDM,1,1,,A,13AiRH3001PAiQFMb=AM9kbp00S6,0*40
"
1622182407.5757296,"$GPGSV,3,2,11,15,09,174,37,17,15,036,37,19,34,053,40,22,02,351,*78
"
1622182407.6231396,"$GPGSV,3,3,11,24,62,124,43,25,36,245,42,32,35,304,42*4A
"
1622182407.672024,"$GPGLL,5157.54493,N,00400.45016,E,061327.00,A,A*63
"
1622182407.6835396,"!AIVDM,1,1,,A,13`hCB050SPBb3rMfw;<Lb4p00Rj,0*73
"
1622182407.8102176,"!AIVDM,1,1,,A,33aI9:@P07PBl84MfoEmkwvn24jS,0*3F
"
1622182407.9155054,"!AIVDM,1,1,,B,43aK`NivEN6=LPBt8FMoDi700h@E,0*38
"
1622182407.9814794,"!AIVDM,2,1,3,A,53ku<342@EAt=4E?T01<d4h58000000000000016Ah9<<5K>NASS4U3H,0*6A
"
1622182407.9921384,"!AIVDM,2,2,3,A,5R@H3Sjh0000000,2*2A
"
1622182408.0207112,"!AIVDM,1,1,,A,139p:e0000PBbOdMfRA4Q1Vp0@@I,0*5A
"
1622182408.126032,"!AIVDM,1,1,,A,13aSQ700000BbC<MfQJ5srjp0@@M,0*7C
"
1622182408.1565852,"!AIVDM,1,1,,B,13aJI600000BMbPMfl0<L4vp08@N,0*4D
"
1622182408.2439651,"$GPRMC,061328.00,A,5157.54505,N,00400.44906,E,2.502,274.12,280521,,,A*67
"
1622182408.284415,"$GPVTG,274.12,T,,M,2.502,N,4.633,K,A*38
"
1622182408.337711,"!AIVDM,1,1,,A,33a5Jn0Oj;PBi;`MgV0cAq8l21<P,0*7C
"
1622182408.35499,"$GPGGA,061328.00,5157.54505,N,00400.44906,E,1,10,0.81,4.5,M,45.9,M,,*5F
"
1622182408.407211,"$GPGSA,A,3,25,32,15,24,17,12,19,02,06,10,,,1.37,0.81,1.10*02
"
1622182408.4746,"$GPGSV,3,1,11,02,06,119,26,06,12,088,33,10,09,262,31,12,76,236,46*7C
"
1622182408.499623,"!AIVDM,1,1,,A,18153v@000PBm88Mg26aESTl08@c,0*2B
"
1622182408.5740333,"$GPGSV,3,2,11,15,09,174,36,17,15,036,36,19,34,053,38,22,02,351,*77
"
1622182408.6206238,"$GPGSV,3,3,11,24,62,124,42,25,36,245,42,32,35,304,43*4A
"
1622182408.6684704,"$GPGLL,5157.54505,N,00400.44906,E,061328.00,A,A*6B
"
1622182408.6878948,"!AIVDM,1,1,,A,13aJHHhP0nPBtphMg2IE:?vp20R`,0*30
"
1622182408.8481407,"!AIVDM,1,1,,B,33anGb0013PBCm4MfWiiiiPp012i,0*03
"
1622182409.0661523,"!AIVDM,1,1,,A,13dqcb53AG0B6L`MiL7<;qbp0`A0,0*42
"
1622182409.0825787,"!AIVDM,1,1,,B,13`e?c0P00PBQSnMfpQ>4?vr24hl,0*59
"
1622182409.0932736,"!AIVDM,1,1,,B,33euWD:001PBlwdMg32SL5`p0000,0*51
"
1622182409.245602,"$GPRMC,061329.00,A,5157.54512,N,00400.44795,E,2.519,273.97,280521,,,A*64
"
1622182409.285928,"$GPVTG,273.97,T,,M,2.519,N,4.665,K,A*3B
"
1622182409.3451114,"$GPGGA,061329.00,5157.54512,N,00400.44795,E,1,10,0.81,4.5,M,45.9,M,,*5C
"
1622182409.4079108,"!AIVDM,1,1,,B,14S0lB00000BgjfMfvR@J9>t0@A9,0*0A
"
1622182409.4222267,"$GPGSA,A,3,25,32,15,24,17,12,19,02,06,10,,,1.37,0.81,1.10*02
"
1622182409.474706,"!AIVDM,1,1,,A,13aDq`0P00PBGCNMfme00?vr2HA<,0*37
"
1622182409.4913812,"!AIVDM,1,1,,B,13aGsOmP17PBatdMf6O2qwvt2@A=,0*0F
"
1622182409.5081606,"$GPGSV,3,1,11,02,06,119,25,06,12,088,32,10,09,262,34,12,76,236,45*78
"
1622182409.5188224,"!AIVDM,1,1,,A,33ev>H0OhW0BQa@MfF0:`:Nn0000,0*1C
"
1622182409.5717316,"!AIVDM,1,1,,A,13aBKS@P00PBpSRMgLrpD?vr2D::,0*01
"
1622182409.6260483,"$GPGSV,3,2,11,15,09,174,35,17,15,036,34,19,34,053,39,22,02,351,*77
"
1622182409.6719732,"$GPGSV,3,3,11,24,62,124,43,25,36,245,42,32,35,304,43*4B
"
1622182409.685915,"$GPGLL,5157.54512,N,00400.44795,E,061329.00,A,A*68
"
1622182409.7004845,"!AIVDM,1,1,,B,338CQ>0Oi8P@aIrMfKG1hQtn01sP,0*42
"
1622182409.7556772,"!AIVDM,1,1,,A,13aGtpPP00PBMjLMf>j@0Ovr2D3V,0*28
"
1622182409.861275,"!AIVDM,1,1,,A,33`gb9@0000BfBhMfpLU4`Pt00nQ,0*39
"
1622182409.941418,"!AIVDM,1,1,,B,33apd60P@QPBJ?fMc20m:3rr00n1,0*01
"
1622182410.156065,"!AIVDM,1,1,,A,133eQ:PP00PBS3DMeo9f4?vtR8Aa,0*74
"
1622182410.2462792,"$GPRMC,061330.00,A,5157.54521,N,00400.44682,E,2.548,274.53,280521,,,A*60
"
1622182410.2894123,"!AIVDM,1,1,,B,402E3MAvEN6=MPBlo>MgVLQ02D<Q,0*37
"
1622182410.3410568,"$GPVTG,274.53,T,,M,2.548,N,4.718,K,A*3B
"
1622182410.3518255,"!AIVDM,1,1,,B,402E3N1vEN6=MP@jfPMeS4A02HAf,0*0E
"
1622182410.4125366,"$GPGGA,061330.00,5157.54521,N,00400.44682,E,1,10,0.81,4.5,M,45.9,M,,*53
"
1622182410.4753504,"$GPGSA,A,3,25,32,15,24,17,12,19,02,06,10,,,1.37,0.81,1.10*02
"
1622182410.4993494,"$GPGSV,3,1,11,02,06,119,23,06,12,088,32,10,09,262,33,12,76,236,45*79
"
1622182410.5099742,"!AIVDM,1,1,,B,33a5Jn0PB;PBi7vMgV7KI98p20TP,0*48
"
1622182410.5768597,"$GPGSV,3,2,11,15,09,174,38,17,15,036,35,19,34,053,39,22,02,351,*7B
"
1622182410.6221797,"!AIVDM,1,1,,A,1342dB00000Bu6<MfoPKc;3p0pAo,0*23
"
1622182410.6752784,"$GPGSV,3,3,11,24,62,124,43,25,36,245,43,32,35,304,42*4B
"
1622182410.6915433,"!AIVDM,1,1,,A,13aGsl:P00PBasdMferTIwv@R@Aq,0*51
"
1622182410.7020752,"$GPGLL,5157.54521,N,00400.44682,E,061330.00,A,A*67
"
1622182410.7168715,"!AIVDM,1,1,,B,13aG7b001C0Bji<MgCO;T9Ft04hl,0*29
"
1622182410.7332494,"!AIVDM,2,1,4,A,53`jkFD000010CCG3808u8DhhT0000000000001?;p?75w?a004Sm51D,0*77
"
1622182410.7437377,"!AIVDM,2,2,4,A,Q0CB1CQiC3h0000,2*22
"
1622182410.872678,"!AIVDM,1,1,,B,13bW`0300cPBUGnMj?`7tFG608B4,0*0E
"
1622182411.008284,"!AIVDM,1,1,,B,33`iH`PP03PBNj`Mf4IhqOvt234Q,0*37
"
1622182411.0333166,"!AIVDM,1,1,,A,13aIhvwP00PBFjhMffBh0?vt24hl,0*0B
"
1622182411.0883057,"!AIVDM,1,1,,A,83`jkF@j2d<dttNMLR9Pq?ch01L0,0*62
"
1622182411.2500987,"$GPRMC,061331.00,A,5157.54531,N,00400.44566,E,2.508,275.02,280521,,,A*68
"
1622182411.2906995,"$GPVTG,275.02,T,,M,2.508,N,4.646,K,A*30
"
1622182411.346332,"!AIVDM,1,1,,A,14SF7T0001PBgr<Mfv9eeI8p00SF,0*1F
"
1622182411.3633451,"$GPGGA,061331.00,5157.54531,N,00400.44566,E,1,10,0.81,4.5,M,45.9,M,,*5A
"
1622182411.4129016,"!AIVDM,1,1,,A,13Qg1H002j0As7DMm2PuWrlr00ST,0*49
"
1622182411.4242356,"!AIVDM,1,1,,B,33`hCB040SPBb2tMfw@dOr5001q0,0*7D
"
1622182411.4795911,"$GPGSA,A,3,25,32,15,24,17,12,19,02,06,10,,,1.37,0.81,1.10*02
"
1622182411.5043397,"!AIVDM,2,1,6,B,54S@o`02@3DqK8DKB210iE@v2222222222222217>H>::5N6N=SS84U3,0*44
"
1622182411.514904,"!AIVDM,2,2,6,B,H88888888888880,2*51
"
1622182411.529549,"$GPGSV,3,1,11,02,06,119,21,06,12,088,32,10,09,262,34,12,76,236,45*7C
"
1622182411.5766861,"!AIVDM,1,1,,A,133kjEPP0IPBF3pMfk6:dgvtRD6D,0*14
"
1622182411.6306822,"$GPGSV,3,2,11,15,09,174,36,17,15,036,32,19,34,053,39,22,02,351,*72
"
1622182411.677084,"$GPGSV,3,3,11,24,62,124,43,25,36,245,43,32,35,304,41*48
"
1622182411.6938548,"$GPGLL,5157.54531,N,00400.44566,E,061331.00,A,A*6E
"
1622182411.7045124,"!AIVDM,1,1,,B,33aJmt5201PBs0tMgAgnmD4v0Dq:,0*02
"
1622182412.0210958,"!AIVDM,1,1,,B,14Rfh2001OPBNL@Mgu?TfSft0@Bg,0*26
"
1622182412.156459,"!AIVDM,1,1,,B,13b?AJ7001PBM>6MasC02Fpb0<99,0*66
"
1622182412.2437596,"$GPRMC,061332.00,A,5157.54544,N,00400.44450,E,2.553,274.67,280521,,,A*61
"
1622182412.2864847,"!AIVDM,1,1,,A,33euWD:001PBlwdMg32SG5`v010@,0*2E
"
1622182412.3398569,"$GPVTG,274.67,T,,M,2.553,N,4.727,K,A*3A
"
1622182412.3504856,"!AIVDM,1,1,,A,338CQ>0Oi9P@aLDMfKPim1vt00wP,0*44
"
1622182412.4110537,"$GPGGA,061332.00,5157.54544,N,00400.44450,E,1,10,0.81,4.5,M,45.9,M,,*5F
"
1622182412.4734216,"!AIVDM,1,1,,B,33`eHVP000PBfH6Mfn@7URNv0183,0*53
"
1622182412.489794,"!AIVDM,1,1,,B,13`pn:0000PBaO<MfP2:9`2v24hl,0*0F
"
1622182412.5004306,"$GPGSA,A,3,25,32,15,24,17,12,19,02,06,10,,,1.37,0.81,1.10*02
"
1622182412.5131817,"!AIVDM,1,1,,B,33`gb9@0000BfBjMfpLS=HQ00000,0*65
"
1622182412.5750272,"$GPGSV,3,1,11,02,06,119,21,06,12,088,33,10,09,262,35,12,76,236,45*7C
"
1622182412.620631,"!AIVDM,1,1,,B,13P;tLPP330B3cVMgi<25ww208Bw,0*77
"
1622182412.6719227,"!AIVDM,1,1,,B,13ku9T@000PBStTMfrasDBS204hl,0*69
"
1622182412.6888592,"$GPGSV,3,2,11,15,09,174,38,17,15,036,27,19,34,053,37,22,02,351,*76
"
1622182412.7058616,"!AIVDM,1,1,,A,34Rn0p5000PBW9BMfMH6S`4v0D?:,0*7E
"
1622182412.7163746,"$GPGSV,3,3,11,24,62,124,43,25,36,245,42,32,35,304,41*49
"
1622182412.7315083,"!AIVDM,1,1,,A,33apd60P@QPBJ@hMc1tE7Ss00000,0*6D
"
1622182412.7479773,"$GPGLL,5157.54544,N,00400.44450,E,061332.00,A,A*6B
"
1622182412.7585466,"!AIVDM,1,1,,B,13e>0L0w0vPC;iBMen5U3T5:04hl,0*4C
"
1622182412.772167,"!AIVDM,1,1,,B,13aC4g@P000BBWlMfpuP0?vv0<3w,0*74
"
1622182412.7825158,"!AIVDM,1,1,,B,402E35ivEN6=PPAOl4MVWig028C9,0*1B
"
1622182412.8503482,"!AIVDM,1,1,,A,13`emQhP00PBlaTMfhg5@ww0RD3w,0*5D
"
1622182412.8756013,"!AIVDM,1,1,,A,13a5Jn002<PBi2VMgVC;QI4v24hl,0*19
"
1622182412.926524,"!AIVDM,1,1,,A,13aJH3@P00PBQ02Meghf4?w02@CA,0*58
"
1622182413.036869,"!AIVDM,1,1,,A,33anGb0013PBCp6MfWwikAQ00000,0*30
"
1622182413.1169775,"!AIVDM,1,1,,B,33ev>H0OhQ0BQa@MfF0:j:nv00u0,0*6E
"
1622182413.1418893,"!AIVDM,1,1,,B,3387Gp5000PBRadMfiRQRjVv0000,0*04
"
1622182413.2454538,"$GPRMC,061333.00,A,5157.54558,N,00400.44333,E,2.509,275.02,280521,,,A*62
"
1622182413.2862113,"$GPVTG,275.02,T,,M,2.509,N,4.646,K,A*31
"
1622182413.3402154,"!AIVDM,1,1,,A,13aQfUOP00PBGhHMfjd>4?w22L31,0*64
"
1622182413.35778,"$GPGGA,061333.00,5157.54558,N,00400.44333,E,1,10,0.81,4.6,M,45.9,M,,*52
"
1622182413.407587,"$GPGSA,A,3,25,32,15,24,17,12,19,02,06,10,,,1.37,0.81,1.10*02
"
1622182413.421812,"!AIVDM,1,1,,A,33`hCB03hSPBb2DMfwD<Pb5400wP,0*21
"
1622182413.4813032,"$GPGSV,3,1,11,02,06,119,24,06,12,088,33,10,09,262,35,12,76,236,45*79
"
1622182413.4918146,"!AIVDM,1,1,,B,13cF0h001A0BgTjMgVB4WCS400S5,0*1E
"
1622182413.5755913,"$GPGSV,3,2,11,15,09,174,38,17,15,036,28,19,34,053,37,22,02,351,*79
"
1622182413.6287725,"!AIVDM,2,1,7,B,539dJr400000@?;;GT105A8T<d0000000000000D=PL66v9g070DPH12,0*4E
"
1622182413.6728573,"!AIVDM,2,2,7,B,C2BCQiC`0DPH880,2*27
"
1622182413.6832755,"$GPGSV,3,3,11,24,62,124,43,25,36,245,41,32,35,304,39*45
"
1622182413.698547,"!AIVDM,1,1,,B,13aDq7hP00PBQ2fMfon1EOw228Cb,0*14
"
1622182413.7150085,"$GPGLL,5157.54558,N,00400.44333,E,061333.00,A,A*65
"
1622182413.725518,"!AIVDM,1,1,,B,13aB;@0000PBgS2Mfw0l5q740D=F,0*23
"
1622182413.7360382,"!AIVDM,1,1,,B,18SJNLP01FPBc00MgdVT>3?20@Cg,0*49
"
1622182413.806072,"!AIVDM,1,1,,A,13ej1800010A5elMeNEc66Q200Rp,0*6F
"
1622182413.9413602,"!AIVDM,1,1,,B,15EJ6@0wiG0A=vjMmew6wmS00@Co,0*40
"
1622182414.102771,"!AIVDM,1,1,,A,13a9@t7000PBMt8MapfP06o42@Cu,0*2F
"
1622182414.1570787,"!AIVDM,1,1,,A,13ku;T0v1w0Cf?NMdLP3wk;40HCw,0*68
"
1622182414.1822603,"!AIVDM,1,1,,B,402Dw?1vEN6=Q0Ad3jMaM<w02@D0,0*59
"
1622182414.2425225,"$GPRMC,061334.00,A,5157.54572,N,00400.44215,E,2.552,274.60,280521,,,A*63
"
1622182414.284838,"!AIVDM,1,1,,B,13aDAwhP00PBAPlMfS=Bp?w2R@D2,0*0A
"
1622182414.3376765,"$GPVTG,274.60,T,,M,2.552,N,4.725,K,A*3E
"
1622182414.352586,"$GPGGA,061334.00,5157.54572,N,00400.44215,E,1,10,0.95,4.7,M,45.9,M,,*5C
"
1622182414.403476,"!AIVDM,1,1,,B,39N`1dE0000BSR`Mf0Hrbog60Dm:,0*6C
"
1622182414.418055,"$GPGSA,A,3,25,32,15,24,17,12,19,02,06,10,,,1.51,0.95,1.16*01
"
1622182414.471241,"!AIVDM,1,1,,B,33a5Jn002=PBi0lMgVG;N95021:0,0*06
"
1622182414.488273,"$GPGSV,3,1,11,02,06,119,26,06,12,088,33,10,09,262,34,12,77,236,45*7B
"
1622182414.5001411,"!AIVDM,1,1,,A,34`aiM5vhhPBqsrMfRbW:5e486N3,0*44
"
1622182414.5733576,"$GPGSV,3,2,11,15,09,174,40,17,15,036,32,19,34,053,36,22,02,351,*7C
"
1622182414.6204007,"$GPGSV,3,3,11,24,62,124,43,25,36,245,42,32,35,304,38*47
"
1622182414.6693506,"!AIVDM,1,1,,B,43aK`NivEN6=SPBt8FMoDi700l6<,0*2C
"
1622182414.68105,"$GPGLL,5157.54572,N,00400.44215,E,061334.00,A,A*6F
"
1622182414.7425265,"!AIVDM,1,1,,B,13aD@N@P00PBMP@Mf8Sv4?w424hl,0*2F
"
1622182414.9280398,"!AIVDM,1,1,,A,13aKWAoP00PBQ2RMegl>4?w42L3=,0*21
"
1622182415.1394951,"!AIVDM,1,1,,B,138CQ>0Oi9P@aNVMfKbQoQw204hl,0*5D
"
1622182415.169467,"!AIVDM,1,1,,A,13aDpf0P03PBSBtMfr8;ggw620SO,0*06
"
1622182415.2431455,"$GPRMC,061335.00,A,5157.54590,N,00400.44093,E,2.560,275.63,280521,,,A*61
"
1622182415.2858553,"!AIVDM,1,1,,B,13aBNA@P0VPBr88MgBJs2ww62HDV,0*20
"
1622182415.3392246,"$GPVTG,275.63,T,,M,2.560,N,4.741,K,A*3F
"
1622182415.353452,"$GPGGA,061335.00,5157.54590,N,00400.44093,E,1,10,0.95,4.7,M,45.9,M,,*5D
"
1622182415.4040813,"!AIVDM,1,1,,B,13e>cJ00010BmipMg1>VR@q40<?h,0*2D
"
1622182415.4193347,"$GPGSA,A,3,25,32,15,24,17,12,19,02,06,10,,,1.51,0.95,1.16*01
"
1622182415.4754658,"$GPGSV,3,1,11,02,06,119,28,06,12,088,33,10,09,262,34,12,77,236,45*75
"
1622182415.5745938,"$GPGSV,3,2,11,15,09,174,38,17,15,036,38,19,34,053,34,22,02,351,*7B
"
1622182415.6200206,"!AIVDM,1,1,,B,33bB<r7000PBMwPMapW006w62ALk,0*1C
"
1622182415.6720142,"$GPGSV,3,3,11,24,62,124,43,25,36,245,42,32,35,304,40*48
"
1622182415.688715,"!AIVDM,1,1,,B,13aC2V@P0J0BNV`Mfh0jFgw4PHDn,0*48
"
1622182415.699289,"$GPGLL,5157.54590,N,00400.44093,E,061335.00,A,A*6E
"
1622182415.9157262,"!AIVDM,1,1,,A,33ev>H0OhM0BQV8MfF0:t:w2011i,0*61
"
1622182415.9707382,"!AIVDM,1,1,,B,33anGb0Oi3PBCr2Mf`8ikiQ6012P,0*27
"
1622182416.0509667,"!AIVDM,1,1,,B,402Dw?1vEN6=S0Ad2tMaMAw02L=r,0*0E
"
1622182416.2471857,"$GPRMC,061336.00,A,5157.54608,N,00400.43972,E,2.530,275.43,280521,,,A*66
"
1622182416.289653,"!AIVDM,1,1,,B,33euWD:000PBlwdMg32SG5a600qQ,0*3C
"
1622182416.3427052,"$GPVTG,275.43,T,,M,2.530,N,4.685,K,A*31
"
1622182416.3577151,"$GPGGA,061336.00,5157.54608,N,00400.43972,E,1,10,0.81,4.8,M,45.9,M,,*57
"
1622182416.409494,"$GPGSA,A,3,25,32,15,24,17,12,19,02,06,10,,,1.37,0.81,1.10*02
"
1622182416.4229116,"!AIVDM,1,1,,A,13aB:A0P0<PBN7VMfskHw?w82@EC,0*25
"
1622182416.4793222,"$GPGSV,3,1,11,02,06,119,29,06,12,088,33,10,09,262,33,12,77,236,45*73
"
1622182416.5778892,"$GPGSV,3,2,11,15,09,174,38,17,15,036,36,19,34,053,38,22,02,351,*79
"
1622182416.62489,"$GPGSV,3,3,11,24,62,124,42,25,36,245,41,32,35,304,41*4B
"
1622182416.67277,"$GPGLL,5157.54608,N,00400.43972,E,061336.00,A,A*6E
"
1622182416.767157,"!AIVDM,1,1,,A,13`kDoh00rPBW48Mjiw7b6520L6K,0*0B
"
1622182416.8469815,"!AIVDM,1,1,,A,13ku9S@0010CJIlMdJa`<HtJ0`ET,0*54
"
1622182416.8766494,"!AIVDM,1,1,,B,13`oU`P009PBMwRMfgpmcBK60HEU,0*6B
"
1622182416.982022,"!AIVDM,1,1,,B,13aoiP00000BpSLMgMPv40K804hl,0*3B
"
1622182417.0319397,"!AIVDM,1,1,,A,13aC2d0P00PBT3tMfjT>4?w82<6M,0*2B
"
1622182417.0877442,"!AIVDM,1,1,,B,13`hCB03@QPBb16MfwKdQb7:00Rm,0*39
"
1622182417.2439818,"$GPRMC,061337.00,A,5157.54625,N,00400.43853,E,2.543,275.80,280521,,,A*61
"
1622182417.2869809,"!AIVDM,1,1,,B,13aI9:@P09PBl8TMfoA5rgw828Ei,0*4B
"
1622182417.3402429,"$GPVTG,275.80,T,,M,2.543,N,4.710,K,A*37
"
1622182417.3550973,"$GPGGA,061337.00,5157.54625,N,00400.43853,E,1,10,0.81,4.9,M,45.9,M,,*5A
"
1622182417.4069207,"!AIVDM,1,1,,A,13aJI600000BMbPMfkwuNTw:08En,0*4B
"
1622182417.4174888,"!AIVDM,1,1,,B,13bnM>3P@5PBK;rMgqNlJCU80@Eo,0*19
"
1622182417.4742036,"$GPGSA,A,3,25,32,15,24,17,12,19,02,06,10,,,1.37,0.81,1.10*02
"
1622182417.4906378,"!AIVDM,1,1,,B,35SUwf3qhb0@sd@MdvP=Sbm:01eh,0*03
"
1622182417.5067291,"$GPGSV,3,1,11,02,06,119,30,06,12,088,32,10,09,262,33,12,77,236,45*7A
"
1622182417.5760782,"$GPGSV,3,2,11,15,09,174,39,17,15,036,39,19,34,053,40,22,02,351,*78
"
1622182417.6227026,"$GPGSV,3,3,11,24,62,124,42,25,36,245,41,32,35,304,40*4A
"
1622182417.6721506,"$GPGLL,5157.54625,N,00400.43853,E,061337.00,A,A*62
"
1622182417.688792,"!AIVDM,1,1,,B,13aSQ700000BbCFMfQIUsrm<08F2,0*2C
"
1622182417.6997447,"!AIVDM,1,1,,B,13`jc`@P1DPBpO>MfwU5H?w:24hl,0*5C
"
1622182417.7107909,"!AIVDM,1,1,,A,13`e?c0P00PBQTBMfpPf4?w:2<80,0*65
"
1622182417.9154685,"!AIVDM,1,1,,B,13dqcb52AD0B6DPMiLbL>9e:0`F<,0*55
"
1622182418.100974,"!AIVDM,1,1,,A,14S0lB00000BgjjMfvR0J9?<0<=;,0*3E
"
1622182418.156345,"!AIVDM,1,1,,A,13P;tLPP330B3q0Mgirj8?w<00SB,0*71
"
1622182418.2457235,"$GPRMC,061338.00,A,5157.54630,N,00400.43737,E,2.539,275.66,280521,,,A*62
"
1622182418.288133,"!AIVDM,1,1,,A,39NSQ;m0000BkhpMg4q@hkU80Dlr,0*2C
"
1622182418.3408005,"$GPVTG,275.66,T,,M,2.539,N,4.703,K,A*30
"
1622182418.355833,"$GPGGA,061338.00,5157.54630,N,00400.43737,E,1,10,0.81,5.0,M,45.9,M,,*54
"
1622182418.4073162,"!AIVDM,1,1,,A,35QASf5000PBn8hMfwT;UCQ;P000,0*03
"
1622182418.421726,"$GPGSA,A,3,25,32,15,24,17,12,19,02,06,10,,,1.37,0.81,1.10*02
"
1622182418.476946,"$GPGSV,3,1,11,02,06,119,29,06,12,088,32,10,09,262,34,12,77,236,45*75
"
1622182418.5024083,"!AIVDM,1,1,,B,13Qg1H002j0As4RMm3a=WJm80@FR,0*37
"
1622182418.5768394,"$GPGSV,3,2,11,15,09,174,37,17,15,036,39,19,34,053,39,22,02,351,*78
"
1622182418.622296,"!AIVDM,1,1,,A,13a;pr0vBPPAsg2Mhg83tC?<00S1,0*00
"
1622182418.6747506,"$GPGSV,3,3,11,24,62,124,42,25,36,245,40,32,35,304,36*4A
"
1622182418.690971,"!AIVDM,1,1,,B,139p:e0000PBbOdMfRA4Q1W>0L@B,0*11
"
1622182418.701585,"$GPGLL,5157.54630,N,00400.43737,E,061338.00,A,A*64
"
1622182419.1133213,"!AIVDM,1,1,,A,13aGsOmP17PBb6FMf6bRw?w>20ST,0*2C
"
1622182419.2445018,"$GPRMC,061339.00,A,5157.54648,N,00400.43621,E,2.586,276.35,280521,,,A*6B
"
1622182419.284759,"$GPVTG,276.35,T,,M,2.586,N,4.790,K,A*3B
"
1622182419.3405886,"!AIVDM,1,1,,B,33aGsl:P00PBat4MferThwvRR3hk,0*74
"
1622182419.357718,"$GPGGA,061339.00,5157.54648,N,00400.43621,E,1,10,0.81,5.0,M,45.9,M,,*5C
"
1622182419.4063668,"!AIVDM,1,1,,B,13aGtpPP01PBMjTMf>k0H?w>24hl,0*17
"
1622182419.4204652,"$GPGSA,A,3,25,32,15,24,17,12,19,02,06,10,,,1.37,0.81,1.10*02
"
1622182419.4729602,"!AIVDM,1,1,,B,13aDq`0P00PBGCDMfmcP0?w>2<1;,0*16
"
1622182419.4895437,"$GPGSV,3,1,11,02,06,119,28,06,12,088,33,10,09,262,34,12,77,236,45*75
"
1622182419.5058594,"!AIVDM,1,1,,A,13aDrChP1E0BU8pMfwdlWww<0D7M,0*22
"
1622182419.5165489,"!AIVDM,1,1,,B,13aBKS@P00PBpSTMgLrpD?w>28G5,0*47
"
1622182419.5706682,"!AIVDM,1,1,,A,13aG7b001C0Bj`hMgCmcT9G<0@G7,0*44
"
1622182419.6203082,"!AIVDM,1,1,,B,18153v@000PBm88Mg26aESU<04hl,0*52
"
1622182419.6804788,"$GPGSV,3,2,11,15,09,174,39,17,14,036,38,19,34,053,41,22,02,351,*79
"
1622182419.6911283,"$GPGSV,3,3,11,24,62,124,42,25,36,245,36,32,35,304,42*48
"
1622182419.7055068,"!AIVDM,1,1,,B,33ev>H0OhI0BQV8MfF0;Gc7:0000,0*1C
"
1622182419.7234268,"$GPGLL,5157.54648,N,00400.43621,E,061339.00,A,A*6C
"
1622182419.7340627,"!AIVDM,1,1,,B,33aN`dP01DPB0RPMii9;ha;>0000,0*78
"
1622182419.7556396,"!AIVDM,1,1,,B,13`jg:w0010BOurMfDdVT83>P@GA,0*26
"
1622182419.8610525,"!AIVDM,1,1,,A,13=m=t001kPBfKHMgI>lT3e>0@GE,0*6F
"
1622182419.8907695,"!AIVDM,1,1,,B,13lBIT000v0B0@dMik8cwaI@00R?,0*52
"
1622182419.9517958,"!AIVDM,2,1,8,B,53`eHV`000010<i0000iD<T@62Q0ThuA>T00000j286435C:e3D2C3m8,0*1D
"
1622182419.9623916,"!AIVDM,2,2,8,B,0ShDRCQp0DQ@@00,2*45
"
1622182419.9965117,"!AIVDM,1,1,,A,33anGb0Oi3PBCtlMf`EQliS>00u1,0*13
"
1622182420.0756588,"!AIVDM,1,1,,A,33apd6000QPBJC>Mc1jE2Sq>00mi,0*3B
"
1622182420.1813712,"!AIVDM,1,1,,A,33`hCB03@RPBb0:MfwQLO:7@0260,0*03
"
1622182420.2475219,"$GPRMC,061340.00,A,5157.54659,N,00400.43504,E,2.572,276.47,280521,,,A*6F
"
1622182420.2901697,"!AIVDM,1,1,,A,402E3MAvEN6=WPBlo>MgVLQ028GR,0*2A
"
1622182420.343153,"$GPVTG,276.47,T,,M,2.572,N,4.763,K,A*39
"
1622182420.3538594,"!AIVDM,1,1,,A,402E3N1vEN6=WP@jfPMeS4A02@GU,0*2A
"
1622182420.4131386,"$GPGGA,061340.00,5157.54659,N,00400.43504,E,1,10,0.81,5.0,M,45.9,M,,*56
"
1622182420.4764302,"!AIVDM,1,1,,A,33a5Jn002<PBhmrMgVfKS`w<21=0,0*1A
"
1622182420.4927113,"!AIVDM,1,1,,B,133eQ:PP00PBS3PMeo8f4?w@R8GS,0*63
"
1622182420.503318,"$GPGSA,A,3,25,32,15,24,17,12,19,02,06,10,,,1.37,0.81,1.10*02
"
1622182420.5212471,"$GPGSV,3,1,11,02,06,119,28,06,12,088,33,10,09,262,34,12,77,236,45*75
"
1622182420.578437,"$GPGSV,3,2,11,15,09,174,38,17,14,036,36,19,34,053,39,22,02,351,*79
"
1622182420.624153,"$GPGSV,3,3,11,24,62,124,42,25,36,245,37,32,35,304,42*49
"
1622182420.6740649,"!AIVDM,1,1,,A,13aFdD@P1BPBj=TMgC7sMww@2<6A,0*08
"
1622182420.6854713,"$GPGLL,5157.54659,N,00400.43504,E,061340.00,A,A*66
"
1622182420.9834712,"!AIVDM,1,1,,A,13ku9T@000PBStLMfrb;DBSB08Gw,0*71
"
1622182421.0340078,"!AIVDM,1,1,,A,13b?AJ7001PBM>2MasCP5Vnt04hl,0*12
"
1622182421.0890808,"!AIVDM,1,1,,B,33M@cg3Oh00@qARMf<0T;V9@019@,0*05
"
1622182421.1693141,"!AIVDM,1,1,,B,13csSp0002PCIhlMdOf25ps>8LBe,0*21
"
1622182421.2446241,"$GPRMC,061341.00,A,5157.54667,N,00400.43389,E,2.573,276.30,280521,,,A*61
"
1622182421.2876036,"!AIVDM,1,1,,A,33bW`0300cPBUETMj?;ornIJ0AH=,0*12
"
1622182421.338866,"$GPVTG,276.30,T,,M,2.573,N,4.765,K,A*3E
"
1622182421.3493474,"!AIVDM,1,1,,A,14Rfh2001PPBNVpMgtiTd3g>0D5u,0*0F
"
1622182421.4101198,"$GPGGA,061341.00,5157.54667,N,00400.43389,E,1,10,0.81,5.1,M,45.9,M,,*58
"
1622182421.4731154,"!AIVDM,1,1,,B,14SF7T0001PBgr<Mfv9Mb99<08H<,0*67
"
1622182421.4897518,"$GPGSA,A,3,25,32,15,24,17,12,19,02,06,10,,,1.37,0.81,1.10*02
"
1622182421.505228,"$GPGSV,3,1,11,02,06,119,27,06,12,088,33,10,09,262,34,12,77,236,44*7B
"
1622182421.5747776,"$GPGSV,3,2,11,15,09,174,38,17,14,036,37,19,33,052,39,22,02,351,*7E
"
1622182421.6197066,"!AIVDM,1,1,,B,13aIhvwP00PBFj`MffBP0?wB28HD,0*0B
"
1622182421.671296,"$GPGSV,3,3,11,24,62,124,42,25,36,245,37,32,35,304,43*48
"
1622182421.6849923,"$GPGLL,5157.54667,N,00400.43389,E,061341.00,A,A*69
"
1622182421.7792835,"!AIVDM,1,1,,B,19NSV:501TPB4HNMikdt5IQ>0<=1,0*50
"
1622182421.8103137,"!AIVDM,1,1,,B,13aL?0W000PBLr4MatO:KVqB00T?,0*12
"
1622182421.835195,"!AIVDM,1,1,,B,13aI::0P1>PBLeTMgDfcO?wB24hl,0*23
"
1622182421.860143,"!AIVDM,1,1,,A,13`iH`PP01PBNj@Mf4KN4?wB2@HP,0*3C
"
1622182421.8898852,"!AIVDM,1,1,,B,33`emQhP00PBlaTMfhg5@wwBR2s3,0*5C
"
1622182422.1005664,"!AIVDM,1,1,,B,13AiVB3005PA<bJMcgtK7aED0D66,0*4D
"
1622182422.1811082,"!AIVDM,1,1,,B,33apd6000QPBJCrMc1gU2SqB0000,0*11
"
1622182422.2473505,"$GPRMC,061342.00,A,5157.54673,N,00400.43275,E,2.548,275.97,280521,,,A*63
"
1622182422.288197,"$GPVTG,275.97,T,,M,2.548,N,4.720,K,A*39
"
1622182422.3438706,"!AIVDM,1,1,,B,33a5Jn0Oj<PBhjBMgVmcH91@20U@,0*4B
"
1622182422.361025,"$GPGGA,061342.00,5157.54673,N,00400.43275,E,1,10,0.81,5.1,M,45.9,M,,*5C
"
1622182422.4099867,"!AIVDM,1,1,,A,402E35QvEN6=b0CRNDMl76W00HHi,0*23
"
1622182422.4205403,"!AIVDM,1,1,,B,33euWD:000PBlwdMg32SG5WB00u0,0*1B
"
1622182422.4769084,"$GPGSA,A,3,25,32,15,24,17,12,19,02,06,10,,,1.37,0.81,1.10*02
"
1622182422.4935014,"!AIVDM,1,1,,A,13`p;d@00tPCLKJMlS06F51B0@Hk,0*26
"
1622182422.5042446,"!AIVDM,1,1,,B,133kjEPP0IPBF02Mfk8Jj?wBR8Hm,0*62
"
1622182422.5217514,"$GPGSV,3,1,11,02,06,119,27,06,12,088,32,10,09,262,34,12,77,236,44*7A
"
1622182422.578979,"$GPGSV,3,2,11,15,09,174,38,17,14,036,37,19,33,052,39,22,02,351,*7E
"
1622182422.6241837,"!AIVDM,1,1,,A,34R;V203Qk0B?OrMh?b45CAF05EC,0*5B
"
1622182422.675641,"$GPGSV,3,3,11,24,62,124,42,25,36,245,36,32,35,304,41*4B
"
1622182422.6889682,"$GPGLL,5157.54673,N,00400.43275,E,061342.00,A,A*6D
"
1622182422.7137628,"!AIVDM,1,1,,A,402E35ivEN6=bPAOl<MVWiO02@I0,0*71
"
1622182422.743794,"!AIVDM,1,1,,A,13cF0h001@0BgeTMgUqTaCQF0<=P,0*02
"
1622182422.7687943,"!AIVDM,1,1,,A,33aDBLmP00PBTgHMfJM09gwD0Dcb,0*5D
"
1622182422.8760326,"!AIVDM,1,1,,A,18;N@R0004PAGs8MeWoI4F560<<P,0*19
"
1622182422.8868244,"!AIVDM,1,1,,B,338CQ>0Oi8P@aTrMfL4AvB3B010P,0*7E
"
1622182422.9292753,"!AIVDM,1,1,,A,33ev>H0OhF0BQV8MfFI<2;9B00t@,0*01
"
1622182422.978556,"!AIVDM,1,1,,B,13bpqN70000BLnvMatUAbAEF0@I:,0*44
"
1622182423.0594113,"!AIVDM,1,1,,B,33anGb0013PBCw6Mf`OQn1SD0000,0*00
"
1622182423.248257,"$GPRMC,061343.00,A,5157.54678,N,00400.43160,E,2.531,276.26,280521,,,A*69
"
1622182423.2907333,"!AIVDM,1,1,,A,33aN`dPPAAPB0OHMii9;ca9D00qh,0*01
"
1622182423.344315,"$GPVTG,276.26,T,,M,2.531,N,4.688,K,A*3D
"
1622182423.359473,"$GPGGA,061343.00,5157.54678,N,00400.43160,E,1,10,0.81,5.1,M,45.9,M,,*51
"
1622182423.4101648,"!AIVDM,1,1,,A,13Qg1H002k0As1VMm4iuW:mB00SH,0*06
"
1622182423.4246438,"$GPGSA,A,3,25,32,15,24,17,12,19,02,06,10,,,1.37,0.81,1.10*02
"
1622182423.4773767,"!AIVDM,1,1,,A,13aBNA@P0SPBr3pMgBQcFOwF28IJ,0*33
"
1622182423.4941251,"!AIVDM,1,1,,B,13ku;T0u1w0CfO<MdL>3wS9H0DJl,0*5C
"
1622182423.5063066,"$GPGSV,3,1,11,02,06,119,27,06,12,088,31,10,09,262,33,12,77,236,43*79
"
1622182423.5792177,"$GPGSV,3,2,11,15,09,174,38,17,14,036,38,19,33,052,39,22,02,351,*71
"
1622182423.625996,"$GPGSV,3,3,11,24,62,124,42,25,36,245,39,32,35,304,42*47
"
1622182423.672995,"$GPGLL,5157.54678,N,00400.43160,E,061343.00,A,A*60
"
1622182423.9452014,"!AIVDM,1,1,,A,18SJNLP01FPBc;TMgdBT>3=F08If,0*34
"
1622182423.961877,"!AIVDM,1,1,,B,13a9@t7000PBMsvMaphP06oF2<2O,0*2E
"
1622182423.9723387,"!AIVDM,1,1,,A,13aC4g@P000BBWlMfpuP0?wD08Ig,0*2A
"
1622182423.9939637,"!AIVDM,1,1,,B,13ej1800000A5ePMeNEc66QF08Ih,0*2E
"
1622182424.0513086,"!AIVDM,1,1,,A,13aDAwhP00PBAPlMfS=Bp?wFR@Ij,0*28
"
1622182424.0677845,"!AIVDM,1,1,,B,13aJH3@P00PBPwpMegg>4?wH24hl,0*02
"
1622182424.0782802,"!AIVDM,1,1,,A,13a5Jn0PB>PBhfVMgVtsI8wD20S1,0*5B
"
1622182424.1792657,"!AIVDM,1,1,,A,402Dw?1vEN6=c0Ad3bMaM=?02@Io,0*7B
"
1622182424.2452617,"$GPRMC,061344.00,A,5157.54682,N,00400.43047,E,2.549,275.68,280521,,,A*69
"
1622182424.2876809,"!AIVDM,1,1,,B,13aQfUOP00PBGhNMfjeN4?wH2<31,0*1A
"
1622182424.3406658,"$GPVTG,275.68,T,,M,2.549,N,4.721,K,A*39
"
1622182424.3512356,"!AIVDM,1,1,,B,33`hCB03@RPBavtMfw`tSb9J00sh,0*5D
"
1622182424.4111013,"$GPGGA,061344.00,5157.54682,N,00400.43047,E,1,10,0.81,5.0,M,45.9,M,,*56
"
1622182424.47367,"$GPGSA,A,3,25,32,15,24,17,12,19,02,06,10,,,1.37,0.81,1.10*02
"
1622182424.4985943,"$GPGSV,3,1,11,02,06,119,27,06,12,088,31,10,09,262,32,12,77,236,44*7F
"
1622182424.508961,"!AIVDM,1,1,,A,13aB;@0000PBgRvMfw1D5q7J0<=E,0*49
"
1622182424.5759714,"$GPGSV,3,2,11,15,09,174,36,17,14,036,36,19,33,052,38,22,02,351,21*73
"
1622182424.622865,"$GPGSV,3,3,11,24,62,124,41,25,36,245,41,32,35,304,42*4B
"
1622182424.6724553,"!AIVDM,1,1,,A,15EJ6@00iF0A=w<MmdtVvEUF08J7,0*40
"
1622182424.6892624,"$GPGLL,5157.54682,N,00400.43047,E,061344.00,A,A*66
"
1622182424.700019,"!AIVDM,1,1,,B,13a;pr0vjQPAstBMhft3uC?H00Rt,0*35
"
1622182424.8463871,"!AIVDM,1,1,,B,13P;tLPP350B48lMgjk28?wJ0L4r,0*79
"
1622182425.1669588,"!AIVDM,1,1,,B,14`aiM5vhhPBqsTMfR679EeJ88JJ,0*29
"
1622182425.247741,"$GPRMC,061345.00,A,5157.54687,N,00400.42935,E,2.574,275.44,280521,,,A*60
"
1622182425.2883554,"$GPVTG,275.44,T,,M,2.574,N,4.767,K,A*3B
"
1622182425.347386,"$GPGGA,061345.00,5157.54687,N,00400.42935,E,1,10,0.81,5.1,M,45.9,M,,*5E
"
1622182425.4099743,"!AIVDM,1,1,,A,38LeN050000BN;4Mft?Vp45F0Dg:,0*64
"
1622182425.4241395,"$GPGSA,A,3,25,32,15,24,17,12,19,02,06,10,,,1.37,0.81,1.10*02
"
1622182425.4771295,"!AIVDM,1,1,,A,13euWD:000PBlwdMg32SG5WH04hl,0*55
"
1622182425.493011,"$GPGSV,3,1,11,02,06,119,26,06,12,088,31,10,09,262,32,12,77,236,44*7E
"
1622182425.5054796,"!AIVDM,1,1,,A,13aD@N@P00PBMP2Mf8TN4?wJ28JV,0*0B
"
1622182425.5796185,"$GPGSV,3,2,11,15,09,174,38,17,14,036,39,19,33,052,38,22,02,351,18*78
"
1622182425.6240077,"!AIVDM,1,1,,B,13aDpf0P04PBSCDMfr5a2OwL24hl,0*7F
"
1622182425.6759932,"$GPGSV,3,3,11,24,62,124,41,25,36,245,40,32,35,304,35*4A
"
1622182425.6925914,"$GPGLL,5157.54687,N,00400.42935,E,061345.00,A,A*6F
"
1622182425.7095861,"!AIVDM,2,1,5,A,53`v664000010<@R22050thhv10ThuA>2222220j1P8335jg0323iBp5,0*4C
"
1622182425.7201624,"!AIVDM,2,2,5,A,`23k30CQ8888880,2*3A
"
1622182425.7831411,"!AIVDM,1,1,,B,13aC2d0P00PBT3hMfjRv4?wJ24hl,0*7F
"
1622182425.8082058,"!AIVDM,1,1,,A,33apd6000QPBJEFMc1am2SqJ00vP,0*30
"
1622182425.8337357,"!AIVDM,1,1,,A,35SUwf3q0c0@sd@MdvP=V:eJ024P,0*16
"
1622182425.8892498,"!AIVDM,1,1,,A,13aC2V@P0K0BNanMfh9jFwwHPHJo,0*19
"
1622182425.9136431,"!AIVDM,1,1,,A,13`jc`@P1DPBpUnMfw3m??wJ24hl,0*2C
"
1622182426.0514166,"!AIVDM,1,1,,A,402Dw?1vEN6=e0Ad2pMaMAw02L>5,0*7B
"
1622182426.062226,"!AIVDM,1,1,,B,13ku9S@0010CJIpMdJa8<Htd0PSc,0*2C
"
1622182426.245307,"$GPRMC,061346.00,A,5157.54692,N,00400.42825,E,2.547,274.43,280521,,,A*61
"
1622182426.288264,"!AIVDM,1,1,,A,13bilF70000BMihMaqI7NnuL0@K3,0*0E
"
1622182426.3410585,"$GPVTG,274.43,T,,M,2.547,N,4.717,K,A*3A
"
1622182426.3517716,"!AIVDM,1,1,,B,33a5Jn0Oj=PBhbrMgW4KJ8uH21>@,0*27
"
1622182426.411356,"$GPGGA,061346.00,5157.54692,N,00400.42825,E,1,10,0.81,5.1,M,45.9,M,,*59
"
1622182426.473786,"$GPGSA,A,3,25,32,15,24,17,12,19,02,06,10,,,1.37,0.81,1.10*02
"
1622182426.498695,"$GPGSV,3,1,11,02,06,119,26,06,12,088,32,10,09,262,33,12,77,236,45*7D
"
1622182426.5099585,"!AIVDM,1,1,,B,13`eH7hP00PB@atMfK9N4?wL24hl,0*07
"
1622182426.5203779,"!AIVDM,1,1,,A,33anGb0013PBD1FMf`aQniSJ00u0,0*0F
"
1622182426.5771973,"$GPGSV,3,2,11,15,09,174,36,17,14,036,37,19,33,052,38,22,02,351,14*74
"
1622182426.6222508,"!AIVDM,1,1,,B,33ev>H0OhF0BQV8MfFI<Cc;F00oi,0*1F
"
1622182426.6745307,"$GPGSV,3,3,11,24,61,125,41,25,36,245,41,32,35,304,35*49
"
1622182426.691053,"!AIVDM,1,1,,A,13aoiP00010BpShMgMNM1@KL0D5@,0*38
"
1622182426.7017431,"$GPGLL,5157.54692,N,00400.42825,E,061346.00,A,A*68
"
1622182426.7160525,"!AIVDM,1,1,,B,37745150000BL8lMgJKM6I9H0DS:,0*3C
"
1622182426.7266881,"!AIVDM,1,1,,B,13aKWAoP00PBQ2RMegl>4?wL28KB,0*29
"
1622182426.7393486,"!AIVDM,1,1,,B,33AP5<5000PBE2HMfc62j6kH8Dg:,0*07
"
1622182426.872753,"!AIVDM,1,1,,B,13`kDoh00tPBW10MjiV7RV5F08KL,0*08
"
1622182426.9018598,"!AIVDM,1,1,,A,13`hCB02hRPBav2MfwftT:9N04hl,0*75
"
1622182427.0325744,"!AIVDM,1,1,,B,13aB:A0P0?PBN5`Mfsmb>OwL28KR,0*17
"
1622182427.0983155,"!AIVDM,2,1,6,A,53aBMW@000010?W7WF0`DpL6222222222222221??H<894@P00?p8888,0*12
"
1622182427.1087394,"!AIVDM,2,2,6,A,888888888888880,2*22
"
1622182427.168613,"!AIVDM,1,1,,A,33dbRr50000BR@jMfp`ebRWL0DQr,0*2D
"
1622182427.244927,"$GPRMC,061347.00,A,5157.54695,N,00400.42711,E,2.551,274.20,280521,,,A*6D
"
1622182427.2857423,"$GPVTG,274.20,T,,M,2.551,N,4.724,K,A*38
"
1622182427.3411534,"!AIVDM,1,1,,A,33aI9:@P0:PBl9<Mfo:mwOwL22Bi,0*57
"
1622182427.3583565,"$GPGGA,061347.00,5157.54695,N,00400.42711,E,1,10,0.81,5.0,M,45.9,M,,*56
"
1622182427.407396,"!AIVDM,1,1,,A,13AiRH3001PAiQLMb=A=9kcP04hl,0*7E
"
1622182427.420228,"$GPGSA,A,3,25,32,15,24,17,12,19,02,06,10,,,1.37,0.81,1.10*02
"
1622182427.4743977,"!AIVDM,1,1,,A,13JNv:0P000Bv6vMfQ8jq?wP00RS,0*08
"
1622182427.491246,"$GPGSV,3,1,11,02,06,119,27,06,12,088,33,10,09,262,34,12,77,236,44*7B
"
1622182427.5032227,"!AIVDM,1,1,,A,13bnM>3Oh4PBK<LMgqMTGkMN0HKk,0*67
"
1622182427.5761702,"$GPGSV,3,2,11,15,09,174,34,17,14,036,39,19,33,052,39,22,02,351,12*7F
"
1622182427.6216679,"!AIVDM,1,1,,A,13aSQ700000BbChMfQJ5srmP0HKm,0*2C
"
1622182427.6730616,"$GPGSV,3,3,11,24,61,125,41,25,37,245,40,32,35,304,37*4B
"
1622182427.6865668,"$GPGLL,5157.54695,N,00400.42711,E,061347.00,A,A*66
"
1622182427.726301,"!AIVDM,1,1,,B,13aJI600000BMbNMfkwL:lwN0<7g,0*28
"
1622182427.8061955,"!AIVDM,2,1,7,A,53aDBG0000010C?WGF0=8TLDF22222222222221J?`:684RU004Sm51D,0*5B
"
1622182427.816661,"!AIVDM,2,2,7,A,Q0CH88888888880,2*49
"
1622182427.916273,"!AIVDM,1,1,,A,13`oU`POh;PBN0VMfgk5MjOL08L3,0*29
"
1622182427.966953,"!AIVDM,1,1,,A,83aBMW@j2d<dtt<NMj`iEgaE0000,0*6A
"
1622182428.1572752,"!AIVDM,1,1,,A,13`jg:w0020BOurMfDdHhp3PP@L<,0*54
"
1622182428.248748,"$GPRMC,061348.00,A,5157.54698,N,00400.42593,E,2.566,273.55,280521,,,A*66
"
1622182428.2895217,"$GPVTG,273.55,T,,M,2.566,N,4.752,K,A*38
"
1622182428.3447056,"!AIVDM,1,1,,B,13apd6000QPBJF6Mc1W503sN04hl,0*6E
"
1622182428.361771,"$GPGGA,061348.00,5157.54698,N,00400.42593,E,1,10,0.81,5.0,M,45.9,M,,*5C
"
1622182428.4125187,"$GPGSA,A,3,25,32,15,24,17,12,19,02,06,10,,,1.37,0.81,1.10*02
"
1622182428.480351,"$GPGSV,3,1,11,02,06,119,29,06,12,088,33,10,09,262,34,12,77,236,45*74
"
1622182428.580619,"$GPGSV,3,2,11,15,09,174,34,17,14,036,39,19,33,052,39,22,02,351,12*7F
"
1622182428.6255076,"!AIVDM,1,1,,A,35?3jF50000Bq8nMfOpIcEoP0000,0*14
"
1622182428.6769502,"$GPGSV,3,3,11,24,61,125,41,25,37,245,39,32,35,304,39*4B
"
1622182428.6936297,"$GPGLL,5157.54698,N,00400.42593,E,061348.00,A,A*6C
"
1622182428.7043684,"!AIVDM,1,1,,A,13eP<P0000PBtWlMfqQSQ1?J00R`,0*5F
"
1622182428.7164109,"!AIVDM,1,1,,A,33`gb9@0000BfBjMfpKPSHQR010i,0*36
"
1622182428.7399235,"!AIVDM,1,1,,A,13lBIT000v0B0:LMikO;waIR0@LR,0*3D
"
1622182428.8354435,"!AIVDM,1,1,,A,83aDBG0j2d<dttdteR`i7?ch0100,0*75
"
1622182428.8502822,"!AIVDM,1,1,,B,33euWD:000PBlwdMg32SG5WP0000,0*4C
"
1622182429.0609908,"!AIVDM,1,1,,A,139p:e0000PBbOjMfRADQ1WR00Rc,0*4F
"
1622182429.1410637,"!AIVDM,1,1,,B,14S0lB00000BgjfMfvR0J9?R0@Li,0*00
"
1622182429.1663473,"!AIVDM,1,1,,A,13dqcb53AE0B6:pMiMG<BagP0`Lj,0*4C
"
1622182429.244826,"$GPRMC,061349.00,A,5157.54699,N,00400.42476,E,2.578,273.24,280521,,,A*65
"
1622182429.2848544,"$GPVTG,273.24,T,,M,2.578,N,4.775,K,A*34
"
1622182429.3447764,"$GPGGA,061349.00,5157.54699,N,00400.42476,E,1,10,0.81,5.0,M,45.9,M,,*56
"
1622182429.4070723,"!AIVDM,1,1,,A,33ev>H0OhE0BQV8MfFI<ic;N0000,0*3B
"
1622182429.4212673,"$GPGSA,A,3,25,32,15,24,17,12,19,02,06,10,,,1.37,0.81,1.10*02
"
1622182429.4741411,"!AIVDM,1,1,,A,33aN`dPPA<PB0L@Mii9;f97P0000,0*29
"
1622182429.4912853,"$GPGSV,3,1,11,02,06,119,30,06,12,088,34,10,09,262,35,12,77,236,45*7A
"
1622182429.5076008,"!AIVDM,1,1,,A,139hW4PP00PC5P:MebRknOwDR<:?,0*50
"
1622182429.5183532,"!AIVDM,1,1,,B,13Qg1H002k0ArwJMm5feWJmN04hl,0*27
"
1622182429.5764234,"$GPGSV,3,2,11,15,09,174,37,17,14,036,39,19,33,052,39,22,02,351,*7F
"
1622182429.6288102,"!AIVDM,2,1,9,B,53`iH``000010W;O;L1=@E8p000000000000001?0`>55vo@054Sm51D,0*3A
"
1622182429.6722813,"!AIVDM,2,2,9,B,Q0C@00000000000,2*4C
"
1622182429.6828759,"$GPGSV,3,3,11,24,61,125,41,25,37,245,41,32,35,304,39*44
"
1622182429.6957953,"$GPGLL,5157.54699,N,00400.42476,E,061349.00,A,A*66
"
1622182429.7558064,"!AIVDM,1,1,,B,338CQ>0Oi9P@abdMfLHR5j7P01w0,0*6A
"
1622182429.8769183,"!AIVDM,1,1,,A,13a;pr0ujPPAt8FMhfhkuS?R0HM?,0*19
"
1622182429.9163036,"!AIVDM,1,1,,B,13aGsOmP15PBb@pMf6nC0?wT28M>,0*21
"
1622182430.075906,"!AIVDM,1,1,,A,13aGtpPP00PBMiNMf>ii6OwT2@MD,0*4A
"
1622182430.1011577,"!AIVDM,1,1,,A,13aI::0P1>PBLUHMgE0;MwwT2<4G,0*20
"
1622182430.1570008,"!AIVDM,1,1,,B,13aG7b001B0BjL@MgDCcT9IP00Rt,0*2F
"
1622182430.18206,"!AIVDM,1,1,,A,13aBKS@P00PBpSRMgLsHD?wR24hl,0*6D
"
1622182430.244522,"$GPRMC,061350.00,A,5157.54698,N,00400.42360,E,2.558,272.88,280521,,,A*69
"
1622182430.2870815,"!AIVDM,1,1,,B,402E3MAvEN6=iPBlo>MgVLQ024hl,0*0A
"
1622182430.340463,"$GPVTG,272.88,T,,M,2.558,N,4.737,K,A*37
"
1622182430.3510883,"!AIVDM,1,1,,A,133eQ:PP00PBS3NMeo7f4?wTR<3p,0*36
"
1622182430.4114256,"$GPGGA,061350.00,5157.54698,N,00400.42360,E,1,10,0.81,5.0,M,45.9,M,,*5F
"
1622182430.4736059,"!AIVDM,1,1,,A,13P;tLPP360B4D<MgkJj8gwV0L4q,0*6A
"
1622182430.4900465,"!AIVDM,1,1,,B,33anGb0013PBD4<Mf`nAoQSR00oQ,0*36
"
1622182430.5006337,"$GPGSA,A,3,25,32,15,24,17,12,19,02,06,10,,,1.37,0.81,1.10*02
"
1622182430.5184343,"$GPGSV,3,1,11,02,06,119,31,06,12,088,34,10,09,262,36,12,77,236,44*79
"
1622182430.5759254,"$GPGSV,3,2,11,15,09,174,35,17,14,036,39,19,33,052,40,22,02,351,*73
"
1622182430.621221,"!AIVDM,1,1,,B,13a5Jn0Oj>PBhSHMgWAKG8wP2<6:,0*30
"
1622182430.6732154,"$GPGSV,3,3,11,24,61,125,42,25,37,245,41,32,35,304,37*49
"
1622182430.689719,"!AIVDM,1,1,,A,13aDq`0P00PBGCLMfmbP0?wT20Rc,0*41
"
1622182430.7002797,"$GPGLL,5157.54698,N,00400.42360,E,061350.00,A,A*6F
"
1622182430.9020078,"!AIVDM,1,1,,B,13aDrChP1E0BUDLMfw>TV?wR08Mk,0*04
"
1622182430.9821365,"!AIVDM,1,1,,A,13aGsl:P00PBat4MfeqmAgvrR<5r,0*1D
"
1622182431.0874166,"!AIVDM,1,1,,A,333kjEPP0IPBEttMfk9rb?wTR8qC,0*52
"
1622182431.1675866,"!AIVDM,1,1,,B,14Rfh2001PPBNjhMgtA4d3eR04hl,0*3A
"
1622182431.2472355,"$GPRMC,061351.00,A,5157.54694,N,00400.42242,E,2.512,272.31,280521,,,A*69
"
1622182431.2876253,"$GPVTG,272.31,T,,M,2.512,N,4.652,K,A*39
"
1622182431.3437073,"!AIVDM,1,1,,B,13b?AJ7001PBM>0MasCh6no@08N1,0*52
"
1622182431.360789,"$GPGGA,061351.00,5157.54694,N,00400.42242,E,1,10,0.81,4.9,M,45.9,M,,*5B
"
1622182431.4147072,"!AIVDM,2,1,8,A,53`lO1l000010GS?W20Tp<E1ADn222222222221?8h:7279b06B0DQC`,0*00
"
1622182431.4761777,"!AIVDM,2,2,8,A,1CDp88888888880,2*6A
"
1622182431.492943,"$GPGSA,A,3,25,32,15,24,17,12,19,02,06,10,,,1.37,0.81,1.10*02
"
1622182431.505196,"$GPGSV,3,1,11,02,06,119,30,06,12,088,35,10,09,262,39,12,77,236,44*76
"
1622182431.5782793,"$GPGSV,3,2,11,15,09,174,35,17,14,036,37,19,33,052,40,22,02,351,*7D
"
1622182431.6239522,"!AIVDM,1,1,,B,13`eHVP000PBfH6Mfn?iHBOT00Ra,0*67
"
