1622561332.8112895,"$GPGSV,3,2,12,14,19,319,36,21,61,275,45,22,30,211,31,23,10,046,40*78
"
1622561332.8230617,"$GPGSV,3,3,12,27,44,143,40,28,09,331,32,32,28,107,42,39,09,114,*72
"
1622561332.8332856,"!AIVDM,1,1,,A,33a5Jn0000PBpa8MgLC726QV20bC,0*5F
"
1622561332.8435614,"$GPGLL,5158.28072,N,00402.65259,E,152852.00,A,A*6D
"
1622561332.950567,"!AIVDM,1,1,,A,13a0NL0P00PBt=2Mfraf4?w`2@O0,0*31
"
1622561333.0311153,"!AIVDM,1,1,,B,13`m6U0P00PBQEpMfp?rmgw`20Rq,0*75
"
1622561333.101336,"!AIVDM,1,1,,A,13c>gr5rijPB:O2MiKnKp9k`05ql,0*6D
"
1622561333.2406147,"$GPRMC,152853.00,A,5158.28125,N,00402.65295,E,2.113,19.95,010621,,,A*59
"
1622561333.2812378,"$GPVTG,19.95,T,,M,2.113,N,3.913,K,A*00
"
1622561333.336926,"!AIVDM,1,1,,B,33`fL=0P@hPBdKpMf6DTQkM`PPtA,0*78
"
1622561333.353846,"$GPGGA,152853.00,5158.28125,N,00402.65295,E,1,10,0.92,1.2,M,45.9,M,,*5B
"
1622561333.403397,"!AIVDM,1,1,,B,133kjEPP0EPBPlhMg?o@kgw`R0S`,0*13
"
1622561333.4174109,"$GPGSA,A,3,28,27,21,23,32,08,22,10,14,01,,,1.78,0.92,1.53*01
"
1622561333.470527,"!AIVDM,1,1,,A,13`hBQPP020Bnq<MfcvhC?wb28O@,0*56
"
1622561333.4875345,"$GPGSV,3,1,12,01,35,268,33,03,03,214,38,08,76,187,42,10,41,057,42*7E
"
1622561333.503765,"!AIVDM,1,1,,A,13euGd00000BFjdMfm4Hs:wd0HOC,0*39
"
1622561333.514388,"!AIVDM,1,1,,B,139er>0P00PBS1lMeoGCkgwbR<3w,0*3B
"
1622561333.5728393,"$GPGSV,3,2,12,14,19,319,35,21,61,275,45,22,30,211,38,23,10,046,37*72
"
1622561333.639645,"$GPGSV,3,3,12,27,44,143,42,28,09,331,36,32,28,107,41,39,09,114,*77
"
1622561333.686661,"$GPGLL,5158.28125,N,00402.65295,E,152853.00,A,A*6F
"
1622561333.6975517,"!AIVDM,1,1,,B,13aBNF@P00PBGCnMfdGf4?wbRD4v,0*40
"
1622561333.778718,"!AIVDM,1,1,,B,13aBKS@P2?PBdDfMfQ1PRgwb28OO,0*64
"
1622561333.8342416,"!AIVDM,1,1,,A,13aGt`0P00PBnu@Mfb:v4?wb2D6J,0*2E
"
1622561333.9408743,"!AIVDM,1,1,,A,13aN2UOP01PBQ5jMg4=<Swwb2<4t,0*0E
"
1622561333.9574752,"!AIVDM,1,1,,B,13aDoTP000PBSBnMewSRpB;b08OU,0*13
"
1622561333.9679132,"!AIVDM,1,1,,B,33aI:;5P17PBDlhMftQ6gOwb22tA,0*0D
"
1622561333.9897277,"!AIVDM,1,1,,A,133g8cPP00PC5OjMebQ>4?wb2@OW,0*79
"
1622561334.020023,"!AIVDM,1,1,,B,33anGb000QPBg9pMgTq4:SAb00s1,0*61
"
1622561334.069905,"!AIVDM,1,1,,A,13aEOd@P0A0Bl70MfkIeHgwd0<7w,0*4F
"
1622561334.1254787,"!AIVDM,1,1,,B,13bK7>00000D3=8MdfkLmE1d0<D6,0*2E
"
1622561334.1506023,"!AIVDM,1,1,,B,13aJI600000BBT0MflCooEKd0@Oe,0*13
"
1622561334.1820421,"!AIVDM,1,1,,B,13euk20000PBA9tMgK@an5EV08Of,0*59
"
1622561334.239343,"$GPRMC,152854.00,A,5158.28176,N,00402.65333,E,2.070,20.23,010621,,,A*56
"
1622561334.2802718,"$GPVTG,20.23,T,,M,2.070,N,3.834,K,A*07
"
1622561334.3360434,"!AIVDM,1,1,,B,13aDqIhP00PBMLTMf:Mf4?wdR<5d,0*58
"
1622561334.3532622,"$GPGGA,152854.00,5158.28176,N,00402.65333,E,1,10,0.92,1.0,M,45.9,M,,*55
"
1622561334.4034162,"$GPGSA,A,3,28,27,21,23,32,08,22,10,14,01,,,1.78,0.92,1.53*01
"
1622561334.4723678,"$GPGSV,3,1,12,01,35,268,33,03,03,214,38,08,76,187,43,10,41,057,43*7E
"
1622561334.5719225,"$GPGSV,3,2,12,14,19,319,36,21,61,275,45,22,30,211,34,23,10,046,39*73
"
1622561334.6326938,"!AIVDM,1,1,,A,13aL>EhP00PBq3fMfTS>4?wd20S>,0*19
"
1622561334.69261,"$GPGSV,3,3,12,27,44,143,42,28,09,331,36,32,28,107,41,39,09,114,*77
"
1622561334.7031248,"$GPGLL,5158.28176,N,00402.65333,E,152854.00,A,A*63
"
1622561334.7135558,"!AIVDM,1,1,,B,13dn=000000BFfPMfm3Ris1b00Sh,0*77
"
1622561334.7672076,"!AIVDM,1,1,,A,13aB:A0P00PBw=pMfLRv4?wd2D80,0*11
"
1622561334.847576,"!AIVDM,1,1,,A,13aDpUhP000CMBVMe9EqUgwf25qh,0*2E
"
1622561334.9273396,"!AIVDM,1,1,,B,33euWD:01NPBdoHMg4f1cQGf00vh,0*46
"
1622561335.163104,"!AIVDM,1,1,,A,13`v660PCuPBmeDMg=gSh2qb08PC,0*4B
"
1622561335.2398078,"$GPRMC,152855.00,A,5158.28231,N,00402.65373,E,2.140,20.00,010621,,,A*50
"
1622561335.2836354,"!AIVDM,1,1,,A,339aBjPP1EPBQs:MeqGjjOwfRBqk,0*62
"
1622561335.3374345,"$GPVTG,20.00,T,,M,2.140,N,3.963,K,A*07
"
1622561335.3516564,"$GPGGA,152855.00,5158.28231,N,00402.65373,E,1,10,0.92,0.9,M,45.9,M,,*58
"
1622561335.4031703,"!AIVDM,1,1,,A,13`hCB0sipPAOS<Mi=9:;`7h0D89,0*2D
"
1622561335.4171412,"$GPGSA,A,3,28,27,21,23,32,08,22,10,14,01,,,1.79,0.92,1.53*00
"
1622561335.473595,"$GPGSV,3,1,12,01,35,268,33,03,03,214,38,08,76,187,43,10,41,057,44*79
"
1622561335.5777361,"$GPGSV,3,2,12,14,19,319,36,21,61,275,45,22,30,211,39,23,10,046,36*71
"
1622561335.5884407,"!AIVDM,1,1,,B,34S0lB000o0BhfnMg@fDESQh0140,0*40
"
1622561335.6383808,"$GPGSV,3,3,12,27,44,143,44,28,09,331,36,32,28,107,44,39,09,114,*74
"
1622561335.684539,"$GPGLL,5158.28231,N,00402.65373,E,152855.00,A,A*66
"
1622561335.7242599,"!AIVDM,1,1,,B,139cN30P0BPBmURMfhCil?wfR5qh,0*3F
"
1622561335.754066,"!AIVDM,1,1,,A,14RQol502cPB3hhMiFU;O9?b0D6V,0*65
"
1622561335.8032176,"!AIVDM,1,1,,B,13aGse0OiJPBm9NMeuk43k?<P5qh,0*66
"
1622561336.069418,"!AIVDM,1,1,,A,13aIhvwP0tPBMCJMg?f4H?wh28Pm,0*3F
"
1622561336.2406826,"$GPRMC,152856.00,A,5158.28283,N,00402.65407,E,2.041,19.31,010621,,,A*56
"
1622561336.2800615,"$GPVTG,19.31,T,,M,2.041,N,3.779,K,A*0A
"
1622561336.3404815,"$GPGGA,152856.00,5158.28283,N,00402.65407,E,1,10,0.92,0.7,M,45.9,M,,*58
"
1622561336.4033422,"!AIVDM,1,1,,B,13aoiP00000BpSRMgMKf40Ch0d5C,0*54
"
1622561336.4171922,"$GPGSA,A,3,28,27,21,23,32,08,22,10,14,01,,,1.79,0.92,1.53*00
"
1622561336.4693236,"!AIVDM,1,1,,B,13lo@t0000PBtc:MfqDuHA?d0<<P,0*76
"
1622561336.485801,"$GPGSV,3,1,12,01,35,268,34,03,03,214,38,08,76,187,42,10,41,057,44*7F
"
1622561336.5026944,"!AIVDM,1,1,,A,35BR4r5000PBS?lMfHhBpBMb0Dg:,0*1C
"
1622561336.5132363,"!AIVDM,1,1,,B,13JNv:0P000C@4FMeaA:7?wj0DAd,0*38
"
1622561336.5770235,"$GPGSV,3,2,12,14,19,319,37,21,61,275,45,22,30,211,39,23,10,046,37*71
"
1622561336.5875807,"!AIVDM,1,1,,A,14SHkL80000BgcVMfvj1Aa?j08Q6,0*2B
"
1622561336.6340036,"!AIVDM,1,1,,A,13:BN>301MPBQMDMiD7hVPUj0D<j,0*3D
"
1622561336.694188,"$GPGSV,3,3,12,27,44,143,38,28,09,331,36,32,28,107,45,39,09,114,*7E
"
1622561336.7047718,"!AIVDM,1,1,,A,33anGb000QPBg;:MgTo4:SAh0000,0*7C
"
1622561336.7194192,"$GPGLL,5158.28283,N,00402.65407,E,152856.00,A,A*68
"
1622561336.72994,"!AIVDM,1,1,,B,13bnM>3005PBK6LMgrM:Njih0<<P,0*17
"
1622561336.7408354,"!AIVDM,1,1,,A,13aDowhP16PBvP4Mfct59wwh2D4f,0*5A
"
1622561336.763846,"!AIVDM,1,1,,B,13`ogTUP00PBavPMfPKN4?whR5qh,0*5F
"
1622561336.874573,"!AIVDM,1,1,,A,139e`LPP00PBaIRMfOlv4?whR5qh,0*28
"
1622561336.8996687,"!AIVDM,1,1,,A,13aEN`PP00PBWS:Mg6sk5gwf2@QD,0*22
"
1622561336.9246788,"!AIVDM,1,1,,A,13aI8g@P1<PBG6hMgIW4;Owh25qh,0*30
"
1622561337.007252,"!AIVDM,1,1,,A,83aBNa@j2d<dtdtd=h=h<?`000P0,0*36
"
1622561337.0178597,"!AIVDM,1,1,,B,1815Bwh00wPA8mFMgTIjIiqj0@QH,0*0F
"
1622561337.085123,"!AIVDM,1,1,,A,13aN1IhP00PBQ9hMf@T6?gwj25qh,0*0B
"
1622561337.151086,"!AIVDM,2,1,7,A,53a5Jn8000010A<4000lU862Q0ThuA>T0000000j2P333<dP02l2C3m8,0*58
"
1622561337.1617603,"!AIVDM,2,2,7,A,0ShDQ2CQp0DQ@@0,2*48
"
1622561337.2412024,"$GPRMC,152857.00,A,5158.28335,N,00402.65438,E,2.039,18.87,010621,,,A*54
"
1622561337.2844574,"!AIVDM,1,1,,B,33aFgOP002PBv4VMfilE<acj20u@,0*46
"
1622561337.3375936,"$GPVTG,18.87,T,,M,2.039,N,3.777,K,A*07
"
1622561337.352715,"$GPGGA,152857.00,5158.28335,N,00402.65438,E,1,10,0.92,0.7,M,45.9,M,,*59
"
1622561337.4036233,"!AIVDM,1,1,,B,13`lRU0P18PBe@bMfnv4cgwj2@QT,0*79
"
1622561337.4180079,"$GPGSA,A,3,28,27,21,23,32,08,22,10,14,01,,,1.79,0.92,1.53*00
"
1622561337.469877,"!AIVDM,1,1,,B,35?3jF50000Bq8`MfP1qqEoj0000,0*57
"
1622561337.4869983,"$GPGSV,3,1,12,01,35,268,37,03,03,214,38,08,76,187,43,10,41,057,46*7F
"
1622561337.4991586,"!AIVDM,1,1,,B,13`v660PCuPBmlPMg=bSc2cf00Rv,0*72
"
1622561337.573515,"$GPGSV,3,2,12,14,19,319,40,21,61,275,45,22,30,211,39,23,10,046,34*72
"
1622561337.6392076,"$GPGSV,3,3,12,27,44,143,41,28,09,331,35,32,28,107,45,39,09,114,*73
"
1622561337.6861143,"$GPGLL,5158.28335,N,00402.65438,E,152857.00,A,A*69
"
1622561337.6973093,"!AIVDM,1,1,,A,13aEQ8hP00PBw<LMfL@f4?wj2HQi,0*51
"
1622561337.8362706,"!AIVDM,1,1,,A,138oBB0000PD4VdMdd4=B1aj08Qo,0*6B
"
1622561337.846914,"!AIVDM,1,1,,B,139aLjPP1C0BR>hMesm9i?whP<3w,0*33
"
1622561337.9682128,"!AIVDM,1,1,,B,19NS8MP0000BaQvMg7BEFTil00Rp,0*3E
"
1622561337.9948208,"!AIVDM,1,1,,A,37tKfME0000BW`>Mg7f1oQw80Dg:,0*2A
"
1622561338.044787,"!AIVDM,1,1,,B,13m91<001kPB:GVMiLmsqaoh0D96,0*07
"
1622561338.1001203,"!AIVDM,1,1,,B,33`gb9@0000Bf=@Mfp2IMn3j00tP,0*1E
"
1622561338.240463,"$GPRMC,152858.00,A,5158.28391,N,00402.65472,E,2.010,18.66,010621,,,A*5F
"
1622561338.2810788,"$GPVTG,18.66,T,,M,2.010,N,3.723,K,A*02
"
1622561338.3411088,"$GPGGA,152858.00,5158.28391,N,00402.65472,E,1,10,0.92,0.8,M,45.9,M,,*59
"
1622561338.4031599,"!AIVDM,1,1,,B,13e>cJ001L0BlNFMg8RDT3Wj0<>n,0*3C
"
1622561338.4173346,"$GPGSA,A,3,28,27,21,23,32,08,22,10,14,01,,,1.79,0.92,1.53*00
"
1622561338.4697075,"!AIVDM,1,1,,B,13aDo87v0F0C3m0Mj;pHonWj0@R<,0*79
"
1622561338.4866762,"$GPGSV,3,1,12,01,35,268,35,03,03,214,38,08,76,187,42,10,41,057,46*7C
"
1622561338.498464,"!AIVDM,1,1,,B,13aER50P00PBtOfMfrCamgwlR<42,0*49
"
1622561338.5725977,"$GPGSV,3,2,12,14,19,319,40,21,61,275,45,22,30,211,40,23,10,046,38*70
"
1622561338.633741,"!AIVDM,1,1,,B,139p:e0000PBgRtMfvv@okSn0HRB,0*58
"
1622561338.686527,"!AIVDM,1,1,,A,B3IEeBP08`4cW77KqMm4Gwu5oP06,0*23
"
1622561338.7030585,"$GPGSV,3,3,12,27,44,143,44,28,09,331,35,32,28,107,46,39,09,114,*75
"
1622561338.7199428,"!AIVDM,1,1,,B,13aSQ700000BG9BMfm>o4s;n0<:i,0*67
"
1622561338.7305408,"$GPGLL,5158.28391,N,00402.65472,E,152858.00,A,A*66
"
1622561338.7901676,"!AIVDM,1,1,,B,13eP<P001FPBgKFMg@aia1Mf08RK,0*79
"
1622561338.8202193,"!AIVDM,1,1,,A,13euWD:01NPBds8Mg521a1Cn0L3P,0*11
"
1622561338.8705611,"!AIVDM,1,1,,B,13aGDk@P1MPBtBhMeoA:r?wl25qh,0*7A
"
1622561339.2413077,"$GPRMC,152859.00,A,5158.28446,N,00402.65507,E,2.021,18.77,010621,,,A*52
"
1622561339.2847526,"!AIVDM,1,1,,A,13iPca0P0CPBnOnMffHTTOwlRHRb,0*2A
"
1622561339.3371246,"$GPVTG,18.77,T,,M,2.021,N,3.743,K,A*06
"
1622561339.3476772,"!AIVDM,1,1,,B,13aDoS0P0QPBcF@Mf7;m<gv0R<8J,0*03
"
1622561339.4081476,"$GPGGA,152859.00,5158.28446,N,00402.65507,E,1,10,0.92,0.9,M,45.9,M,,*57
"
1622561339.4711127,"!AIVDM,1,1,,A,34S0lB000o0BhifMg@`DFCP000kA,0*27
"
1622561339.4876826,"!AIVDM,1,1,,A,13`oeUPP22PBviPMg0gd1OwnR@Rg,0*1F
"
1622561339.4982574,"$GPGSA,A,3,28,27,21,23,32,08,22,10,14,01,,,1.79,0.92,1.53*00
"
1622561339.5100024,"!AIVDM,1,1,,A,133m:WPP000BQMFMfpMv4?wnP0RK,0*34
"
1622561339.5704646,"!AIVDM,1,1,,A,13`v660PCsPBmsHMg=bSQ2Qj0HRj,0*18
"
1622561339.5867088,"$GPGSV,3,1,12,01,35,268,36,03,03,214,37,08,76,187,42,10,41,057,46*70
"
1622561339.6404195,"$GPGSV,3,2,12,14,19,319,39,21,61,275,46,22,30,211,39,23,10,046,35*7E
"
1622561339.6952722,"$GPGSV,3,3,12,27,44,143,43,28,09,331,36,32,28,107,44,39,09,114,*73
"
1622561339.712475,"!AIVDM,2,1,8,B,53`gLP8000010CCC3H0hDt00000000000000001?@806AuOal5C@@DmS,0*60
"
1622561339.723118,"!AIVDM,2,2,8,B,0Bm1H<P00000000,2*15
"
1622561339.7371702,"$GPGLL,5158.28446,N,00402.65507,E,152859.00,A,A*69
"
1622561339.74779,"!AIVDM,1,1,,B,33`fL=0P@hPBdP:Mf6:lMSKnPPuh,0*6B
"
1622561339.830676,"!AIVDM,1,1,,B,33aN`dPP@APAniPMid41GQ1n0000,0*45
"
1622561340.1262512,"!AIVDM,1,1,,A,13aBKS@P2APBdGhMfQt0SOwn20SC,0*0C
"
1622561340.2489073,"$GPRMC,152900.00,A,5158.28496,N,00402.65536,E,1.950,18.60,010621,,,A*5A
"
1622561340.292766,"!AIVDM,1,1,,A,402E3MAvEPgLsPBlo@MgVLQ02806,0*5D
"
1622561340.3452308,"$GPVTG,18.60,T,,M,1.950,N,3.612,K,A*09
"
1622561340.359759,"$GPGGA,152900.00,5158.28496,N,00402.65536,E,1,10,0.92,0.8,M,45.9,M,,*54
"
1622561340.4123335,"!AIVDM,1,1,,B,33anGb000QPBg<jMgTll:SAn00v0,0*33
"
1622561340.426397,"$GPGSA,A,3,28,27,21,23,32,08,22,10,14,01,,,1.79,0.92,1.53*00
"
1622561340.479235,"!AIVDM,1,1,,A,33`gb9@0000Bf=@Mfp2IH620017A,0*48
"
1622561340.4955192,"$GPGSV,3,1,12,01,35,268,36,03,03,214,36,08,76,187,41,10,41,057,47*73
"
1622561340.5871022,"$GPGSV,3,2,12,14,19,319,37,21,61,275,46,22,30,211,35,23,10,046,33*7A
"
1622561340.5985572,"!AIVDM,1,1,,A,14cnKP001m0BDp4MhcF;aqH00Uqh,0*34
"
1622561340.6476073,"$GPGSV,3,3,12,27,44,143,44,28,09,331,35,32,28,107,45,39,09,114,*76
"
1622561340.6937134,"$GPGLL,5158.28496,N,00402.65536,E,152900.00,A,A*6B
"
1622561340.7368116,"!AIVDM,1,1,,B,19NSLhD1QDPB`DRMgWv4NCUV0H0J,0*23
"
1622561340.8424766,"!AIVDM,1,1,,A,13aDof0P1CPBPtPMg6Iruwv02<;V,0*7C
"
1622561341.0038097,"!AIVDM,1,1,,B,13b?AJ701CPAsT@Mc8O0G@MT0<<P,0*65
"
1622561341.2462885,"$GPRMC,152901.00,A,5158.28544,N,00402.65562,E,1.913,18.26,010621,,,A*51
"
1622561341.2871609,"$GPVTG,18.26,T,,M,1.913,N,3.543,K,A*0B
"
1622561341.347949,"$GPGGA,152901.00,5158.28544,N,00402.65562,E,1,10,0.92,0.9,M,45.9,M,,*5B
"
1622561341.4104776,"!AIVDM,1,1,,B,33aDCs0P000BMLBMf:gC:gv0P6?A,0*57
"
1622561341.4211266,"!AIVDM,1,1,,B,13aL>>PP00PBArHMfVqh0?v2280h,0*1E
"
1622561341.4774795,"$GPGSA,A,3,28,27,21,23,32,08,22,10,14,01,,,1.79,0.92,1.53*00
"
1622561341.4938643,"!AIVDM,1,1,,A,33aDqWUP010BCVtMfUTHpwv0PDbb,0*05
"
1622561341.510644,"$GPGSV,3,1,12,01,35,268,38,03,03,214,36,08,76,187,41,10,41,057,47*7D
"
1622561341.5224285,"!AIVDM,1,1,,A,13aKWAoP00PBQ2:Megq>4?v22D3j,0*0C
"
1622561341.5766308,"!AIVDM,1,1,,B,13`v660PCqPBn60Mg=e3DRD005ql,0*22
"
1622561341.5926688,"$GPGSV,3,2,12,14,19,319,36,21,61,275,46,22,30,211,35,23,10,046,36*7E
"
1622561341.6458044,"$GPGSV,3,3,12,27,44,143,44,28,09,331,36,32,28,107,45,39,09,114,*75
"
1622561341.6930728,"!AIVDM,1,1,,A,13`jdOhP000BMN8Mf@6@0?v0080s,0*6B
"
1622561341.7098184,"$GPGLL,5158.28544,N,00402.65562,E,152901.00,A,A*65
"
1622561341.7204976,"!AIVDM,1,1,,B,33euWD:01OPBdu0Mg5<1VQF20000,0*00
"
1622561341.7311842,"!AIVDM,1,1,,A,13aBL80P0RPBPN:MgBCKCwv2RL7w,0*09
"
1622561341.936788,"!AIVDM,1,1,,A,13`eHVP000PBpdHMgLfCfFT20@17,0*62
"
1622561342.0160525,"!AIVDM,1,1,,B,14RQol502cPB3T@MiFv;La?n00S0,0*71
"
1622561342.2477846,"$GPRMC,152902.00,A,5158.28592,N,00402.65590,E,1.908,17.73,010621,,,A*51
"
1622561342.2808108,"$GPVTG,17.73,T,,M,1.908,N,3.533,K,A*09
"
1622561342.3407323,"$GPGGA,152902.00,5158.28592,N,00402.65590,E,1,10,0.92,0.9,M,45.9,M,,*5E
"
1622561342.4033113,"$GPGSA,A,3,28,27,21,23,32,08,22,10,14,01,,,1.79,0.92,1.53*00
"
1622561342.4172318,"!AIVDM,1,1,,B,35R7Pn1w@0P@gq>MovJMS1L00Dpb,0*5D
"
1622561342.4784706,"$GPGSV,3,1,12,01,35,268,39,03,03,214,36,08,76,187,40,10,41,057,47*7D
"
1622561342.4890924,"!AIVDM,1,1,,A,13aK`5PP00PC00`Mfc1tuwv42<7i,0*35
"
1622561342.577628,"$GPGSV,3,2,12,14,19,319,36,21,61,275,46,22,30,211,37,23,10,046,37*7D
"
1622561342.588283,"!AIVDM,1,1,,B,14Qvm`00000CCObMeMtkPQ<60<EQ,0*7E
"
1622561342.639633,"$GPGSV,3,3,12,27,44,143,44,28,09,331,39,32,28,107,43,39,09,114,*7C
"
1622561342.6860707,"!AIVDM,1,1,,A,1342dB00000Bu5FMfoSrJK1p0Uq`,0*21
"
1622561342.6972792,"$GPGLL,5158.28592,N,00402.65590,E,152902.00,A,A*60
"
1622561342.7903652,"!AIVDM,1,1,,B,34S0lB000o0BhkpMg@T4G3P60000,0*29
"
1622561342.8447444,"!AIVDM,1,1,,B,13a5Jn0000PBpa8MgLC726P22<3h,0*4D
"
1622561342.925835,"!AIVDM,1,1,,A,13`m6U0P00PBQEvMfp?btOv420Sd,0*10
"
1622561342.95083,"!AIVDM,1,1,,B,13`iH`PP00PBNh2Mf4Wv4?v420RL,0*6B
"
1622561343.0312054,"!AIVDM,1,1,,B,13aGt`0P00PBnu@Mfb;>4?v42<6L,0*4D
"
1622561343.0607953,"!AIVDM,1,1,,A,33`fL=0P@gPBdR0Mf66lKSH4PPrA,0*12
"
1622561343.1663957,"!AIVDM,1,1,,B,33aI8fUP00PB`qpMfNoR9wv4RDg:,0*3A
"
1622561343.240535,"$GPRMC,152903.00,A,5158.28643,N,00402.65617,E,1.861,17.75,010621,,,A*5B
"
1622561343.281108,"$GPVTG,17.75,T,,M,1.861,N,3.447,K,A*03
"
1622561343.3399882,"$GPGGA,152903.00,5158.28643,N,00402.65617,E,1,10,0.92,1.1,M,45.9,M,,*55
"
1622561343.4033747,"$GPGSA,A,3,28,27,21,23,32,08,22,10,14,01,,,1.79,0.92,1.53*00
"
1622561343.4787672,"$GPGSV,3,1,12,01,35,268,39,03,03,214,35,08,76,187,40,10,41,057,44*7D
"
1622561343.4893837,"!AIVDM,1,1,,A,13aDqIhP00PBMLTMf:Mf4?v6R81w,0*1B
"
1622561343.505548,"!AIVDM,1,1,,B,13euGd00000BFjhMfm3`0K08081w,0*0A
"
1622561343.5163987,"!AIVDM,1,1,,A,13`v660PCnPBn<pMg=j35R640@22,0*14
"
1622561343.572733,"$GPGSV,3,2,12,14,19,319,38,21,61,275,45,22,30,211,39,23,10,046,37*7E
"
1622561343.63936,"$GPGSV,3,3,12,27,44,143,44,28,09,331,36,32,28,107,44,39,09,114,*74
"
1622561343.6864715,"$GPGLL,5158.28643,N,00402.65617,E,152903.00,A,A*62
"
1622561343.6971698,"!AIVDM,1,1,,A,13fK8g@017PBrcjMg;e4f3t60D<P,0*06
"
1622561343.7793164,"!AIVDM,1,1,,B,13`g94000RPB8CNMeHG1vAP60@2<,0*51
"
1622561343.8039978,"!AIVDM,1,1,,A,13euk20000PBA9tMgK@an5F2082=,0*1B
"
1622561343.964708,"!AIVDM,1,1,,B,13aGtO0P00PBwOFMfLFN4?v625ql,0*08
"
1622561344.0701253,"!AIVDM,1,1,,B,13`hBQPP01PBnp8MfcrPC?v82@2G,0*56
"
1622561344.1256244,"!AIVDM,1,1,,B,13aL>EhP00PBq3NMfTQv4?v82<7F,0*35
"
1622561344.1805017,"!AIVDM,1,1,,A,402Dw?1vEPgM30Ad4lMaM9O0282K,0*4E
"
1622561344.2386136,"$GPRMC,152904.00,A,5158.28695,N,00402.65645,E,1.887,17.66,010621,,,A*5A
"
1622561344.279806,"$GPVTG,17.66,T,,M,1.887,N,3.495,K,A*06
"
1622561344.3401728,"$GPGGA,152904.00,5158.28695,N,00402.65645,E,1,10,0.92,1.2,M,45.9,M,,*5D
"
1622561344.401125,"!AIVDM,1,1,,A,83aDrJhj2d<dte=<v3Tijgk@6@t0,0*40
"
1622561344.411898,"!AIVDM,1,1,,A,33aI:;5P1;PBDpRMfsd6Hgv822fQ,0*48
"
1622561344.46987,"$GPGSA,A,3,28,27,21,23,32,08,22,10,14,01,,,1.79,0.92,1.53*00
"
1622561344.4942372,"$GPGSV,3,1,12,01,35,268,38,03,03,214,34,08,76,187,42,10,41,057,43*78
"
1622561344.5049646,"!AIVDM,1,1,,B,139aBjPP1GPBR6RMeqcBj?v8R5ql,0*1C
"
1622561344.5769975,"$GPGSV,3,2,12,14,19,319,36,21,61,275,45,22,30,211,37,23,10,046,38*71
"
1622561344.58756,"!AIVDM,1,1,,A,13aJI600000BBSnMflDodmJ805ql,0*72
"
1622561344.6338818,"!AIVDM,1,1,,B,33`gb9@0000Bf=>Mfp2`f6280000,0*4D
"
1622561344.6944096,"$GPGSV,3,3,12,27,44,143,46,28,09,331,36,32,28,107,42,39,09,114,31*72
"
1622561344.7049882,"!AIVDM,1,1,,A,133kjEPP0CPBPmVMg@5Pf?v6R0S0,0*4E
"
1622561344.7200081,"$GPGLL,5158.28695,N,00402.65645,E,152904.00,A,A*69
"
1622561344.7305703,"!AIVDM,1,1,,A,13bnM>3006PBK5jMgrM:MBh800SF,0*3D
"
1622561344.7636232,"!AIVDM,1,1,,A,34S0lB000o0BhmBMg@Q4HCP:00v0,0*2E
"
1622561344.8994884,"!AIVDM,1,1,,B,13aN2UOP00PBQ5fMg4=u=gv82H2n,0*04
"
1622561344.9236093,"!AIVDM,1,1,,A,13dn=000000BFf:Mfm5jis0605ql,0*56
"
1622561345.1394155,"!AIVDM,1,1,,A,13aI9:@P0HPBkSBMfq3GLwv820SJ,0*4F
"
1622561345.2404625,"$GPRMC,152905.00,A,5158.28746,N,00402.65671,E,1.893,17.56,010621,,,A*55
"
1622561345.2812672,"$GPVTG,17.56,T,,M,1.893,N,3.505,K,A*08
"
1622561345.3366022,"!AIVDM,1,1,,B,13aDowhP17PBvVhMfcNU7wv:2834,0*2C
"
1622561345.3538713,"$GPGGA,152905.00,5158.28746,N,00402.65671,E,1,10,0.92,1.3,M,45.9,M,,*55
"
1622561345.4041283,"$GPGSA,A,3,28,27,21,23,32,08,22,10,14,01,,,1.79,0.92,1.53*00
"
1622561345.4785345,"$GPGSV,3,1,12,01,35,268,38,03,03,214,34,08,76,187,42,10,41,057,45*7E
"
1622561345.4891188,"!AIVDM,1,1,,B,13`v660PClPBn@0Mg=o2nQr60<7b,0*1A
"
1622561345.5046794,"!AIVDM,1,1,,B,13aEOd@P0B0Bl40MfkGsVOv:083;,0*71
"
1622561345.5152295,"!AIVDM,1,1,,B,13aN1IhP01PBQ9lMf@SnHwv:20S6,0*1D
"
1622561345.5722535,"$GPGSV,3,2,12,14,19,319,36,21,61,275,44,22,30,211,37,23,10,046,38*70
"
1622561345.63891,"$GPGSV,3,3,12,27,44,143,44,28,09,331,34,32,28,107,43,39,09,114,31*73
"
1622561345.6869385,"!AIVDM,1,1,,B,13`gLP0P0?PBqQnMfSlGCOv:2@3@,0*1D
"
1622561345.7038321,"$GPGLL,5158.28746,N,00402.65671,E,152905.00,A,A*60
"
1622561345.7145126,"!AIVDM,1,1,,A,13lo@t0000PBtc<MfqDuHA>60H3C,0*48
"
1622561345.9650424,"!AIVDM,1,1,,A,139cN30P0@PBmT0MfhM@cgv:R83N,0*19
"
1622561346.241542,"$GPRMC,152906.00,A,5158.28796,N,00402.65694,E,1.831,17.11,010621,,,A*5B
"
1622561346.284714,"!AIVDM,1,1,,B,13:SWp3020PBCpfMjNC674b<05ql,0*76
"
1622561346.3381963,"$GPVTG,17.11,T,,M,1.831,N,3.391,K,A*08
"
1622561346.3488219,"!AIVDM,1,1,,B,13:BN>301MPBQPhMiE5PV0T>083`,0*78
"
1622561346.407531,"$GPGGA,152906.00,5158.28796,N,00402.65694,E,1,10,0.92,1.3,M,45.9,M,,*50
"
1622561346.4712026,"!AIVDM,1,1,,B,33`fL=000gPBdSpMf634IkH:PP00,0*1A
"
1622561346.4875054,"!AIVDM,1,1,,B,13aBKS@P2@PBdJlMfRn0Ugv:20SJ,0*6C
"
1622561346.498081,"$GPGSA,A,3,28,27,21,23,32,08,22,10,14,01,,,1.79,0.92,1.53*00
"
1622561346.5109453,"!AIVDM,1,1,,A,339cNG0000PBko0MflNf49<<PBmS,0*1D
"
1622561346.5705454,"!AIVDM,1,1,,B,13ev>H00000Bu2HMfoV:51>60@3e,0*3D
"
1622561346.586658,"$GPGSV,3,1,12,01,35,268,38,03,03,214,33,08,76,187,43,10,41,057,43*7E
"
1622561346.6347487,"!AIVDM,1,1,,B,3815N25000PBq?vMfUaPpmp40Dg:,0*46
"
1622561346.6954045,"$GPGSV,3,2,12,14,19,319,37,21,61,275,44,22,30,211,35,23,10,046,37*7C
"
1622561346.7114477,"$GPGSV,3,3,12,27,44,143,45,28,09,331,36,32,28,107,40,39,09,114,32*70
"
1622561346.7220013,"!AIVDM,1,1,,A,13aoiP00000BpSTMgMKv40@<0h3o,0*30
"
1622561346.7374082,"$GPGLL,5158.28796,N,00402.65694,E,152906.00,A,A*65
"
1622561346.7541628,"!AIVDM,1,1,,B,13aEN`PP00PBWS:Mg6uBw?v:2D9L,0*2D
"
1622561346.765479,"!AIVDM,1,1,,B,139e`LPP00PBaIbMfOnf4?v<R0SH,0*5B
"
1622561346.8455207,"!AIVDM,1,1,,B,139Fnw0000PBgrjMfvA<iq@<0<<d,0*3C
"
1622561346.870682,"!AIVDM,1,1,,A,14RQol502aPB3GhMiGG;Ga@:00S@,0*2B
"
1622561346.925878,"!AIVDM,1,1,,B,33anGb000QPBg?bMgThD:SB<0000,0*03
"
1622561346.9810352,"!AIVDM,1,1,,B,13aQfUOP00PBG1nMfmm>4?v<20S3,0*07
"
1622561347.1654723,"!AIVDM,1,1,,A,13`v660PCjPBnFTMg>12WQf:0<7e,0*06
"
1622561347.2416568,"$GPRMC,152907.00,A,5158.28846,N,00402.65716,E,1.826,16.91,010621,,,A*5C
"
1622561347.282311,"$GPVTG,16.91,T,,M,1.826,N,3.381,K,A*06
"
1622561347.341845,"$GPGGA,152907.00,5158.28846,N,00402.65716,E,1,10,0.92,1.3,M,45.9,M,,*58
"
1622561347.4041512,"!AIVDM,1,1,,A,13aSQ700000BG8vMfm?o4s:@0@4B,0*26
"
1622561347.4184546,"$GPGSA,A,3,28,27,21,23,32,08,22,10,14,01,,,1.79,0.92,1.53*00
"
1622561347.4715652,"!AIVDM,1,1,,B,13aIhvwP0tPBMLnMg?K4F?v>2<7h,0*05
"
1622561347.488548,"$GPGSV,3,1,12,01,35,268,37,03,03,214,32,08,76,187,42,10,41,057,43*71
"
1622561347.505044,"!AIVDM,1,1,,A,13m91<001kPB::BMiMScs9n<0H4E,0*3F
"
1622561347.5157907,"!AIVDM,1,1,,B,13aI8g@P1=PBGB8MgIET=?v>2D:j,0*7D
"
1622561347.573944,"$GPGSV,3,2,12,14,19,319,38,21,61,275,44,22,30,211,35,23,10,046,38*7C
"
1622561347.6337225,"!AIVDM,1,1,,A,13eP<P0OiFPBgRvMgA@1cQ`805ql,0*14
"
1622561347.694644,"$GPGSV,3,3,12,27,44,143,47,28,09,331,37,32,28,107,42,39,09,114,33*70
"
1622561347.705315,"$GPGLL,5158.28846,N,00402.65716,E,152907.00,A,A*6D
"
1622561347.718902,"!AIVDM,1,1,,B,14SHkL80000BgcfMfvhiAa>@0@4N,0*0C
"
1622561347.7294943,"!AIVDM,1,1,,B,133m:WPP000BQMFMfpN>4?v>PD7s,0*04
"
1622561347.859263,"!AIVDM,1,1,,A,13`lRU0P18PBeITMfnTlpOv>284U,0*4D
"
1622561347.9147716,"!AIVDM,1,1,,A,139p:e0000PBgS0Mfvw0okT@0H4W,0*35
"
1622561347.9648862,"!AIVDM,1,1,,A,33`gb9@0000Bf=>Mfp2`NF2>00th,0*0C
"
1622561347.9895172,"!AIVDM,1,1,,A,13`ogTUP00PBavdMfPJ>4?v>R84b,0*0C
"
1622561348.150267,"!AIVDM,1,1,,B,34S0lB000o0BhoNMg@M4GCP@015A,0*79
"
1622561348.2416005,"$GPRMC,152908.00,A,5158.28899,N,00402.65744,E,1.876,16.66,010621,,,A*5B
"
1622561348.2820609,"$GPVTG,16.66,T,,M,1.876,N,3.474,K,A*06
"
1622561348.341298,"$GPGGA,152908.00,5158.28899,N,00402.65744,E,1,10,0.92,1.4,M,45.9,M,,*55
"
1622561348.403854,"!AIVDM,1,1,,B,13iPca0P0APBnR8MffC4QOv>R<3w,0*5D
"
1622561348.418364,"$GPGSA,A,3,28,27,21,23,32,08,22,10,14,01,,,1.79,0.92,1.53*00
"
1622561348.4795449,"$GPGSV,3,1,12,01,35,268,37,03,03,214,30,08,76,187,42,10,41,057,42*72
"
1622561348.4900644,"!AIVDM,1,1,,A,15Dhel001vPB@npMhU3;E98B0@4s,0*45
"
1622561348.500671,"!AIVDM,1,1,,B,13aJIhPP00PBMNPMf8:LIgv@20Rt,0*35
"
1622561348.5737822,"$GPGSV,3,2,12,14,19,319,37,21,61,275,44,22,30,211,36,23,10,046,35*7D
"
1622561348.6409993,"$GPGSV,3,3,12,27,44,143,41,28,09,331,37,32,28,107,42,39,09,114,34*71
"
1622561348.688564,"!AIVDM,1,1,,A,19NS8MP0000BaR@Mg7BEFThB0L@d,0*5D
"
1622561348.704569,"$GPGLL,5158.28899,N,00402.65744,E,152908.00,A,A*67
"
1622561348.7152002,"!AIVDM,1,1,,B,39N`0nm0000BTIdMfswW4H>80Dsb,0*6E
"
1622561348.7652884,"!AIVDM,1,1,,B,13euWD:01OPBe3pMg5l1VQNB00SA,0*3F
"
1622561348.791147,"!AIVDM,1,1,,A,139aLjPP1A0BR2pMesP9mOv>PD3w,0*40
"
1622561348.9269018,"!AIVDM,1,1,,A,19NSLhD1QDPB`LvMgWbTN3Un0@5=,0*4A
"
1622561349.087213,"!AIVDM,1,1,,B,138oBB0000PD4VdMdd6eB1`B085C,0*53
"
1622561349.1121707,"!AIVDM,1,1,,A,14`W:b0000PC@KHMe`PS5abB00Rg,0*16
"
1622561349.2417753,"$GPRMC,152909.00,A,5158.28953,N,00402.65771,E,1.873,17.04,010621,,,A*5B
"
1622561349.2820985,"$GPVTG,17.04,T,,M,1.873,N,3.468,K,A*0B
"
1622561349.33847,"!AIVDM,1,1,,A,33`fL=000gPBdUfMf5wDH3F@PQ1h,0*4B
"
1622561349.3550627,"$GPGGA,152909.00,5158.28953,N,00402.65771,E,1,10,0.92,1.4,M,45.9,M,,*55
"
1622561349.4040473,"!AIVDM,1,1,,B,14cnKP001m0BDdJMhcm;baH@0l4P,0*51
"
1622561349.4180977,"$GPGSA,A,3,28,27,21,23,32,08,22,10,14,01,,,1.79,0.92,1.53*00
"
1622561349.4717422,"!AIVDM,1,1,,A,33aN`dPP@APAnl`Mid413Pl@0000,0*75
"
1622561349.4881861,"$GPGSV,3,1,12,01,35,268,36,03,03,214,30,08,76,187,43,10,41,057,44*74
"
1622561349.5002773,"!AIVDM,1,1,,B,13`v660PCjPBnLlMg>@2F1V>0<7j,0*0C
"
1622561349.5736334,"$GPGSV,3,2,12,14,19,319,37,21,61,275,45,22,30,211,38,23,10,046,38*7F
"
1622561349.6397793,"$GPGSV,3,3,12,27,44,143,43,28,09,331,34,32,28,107,41,39,09,114,34*73
"
1622561349.6864326,"!AIVDM,1,1,,B,13aGDshP00PBnpDMfh:00?vB285V,0*5D
"
1622561349.6981611,"$GPGLL,5158.28953,N,00402.65771,E,152909.00,A,A*67
"
1622561349.805464,"!AIVDM,1,1,,B,13aG7b00000Bv78MfQ=UlQB@0@5f,0*51
"
1622561350.2395523,"$GPRMC,152910.00,A,5158.29003,N,00402.65797,E,1.858,16.88,010621,,,A*5A
"
1622561350.2825408,"!AIVDM,1,1,,B,402E3MAvEPgM9PBlo@MgVLQ02D<Q,0*02
"
1622561350.3343923,"$GPVTG,16.88,T,,M,1.858,N,3.441,K,A*0C
"
1622561350.3493605,"$GPGGA,152910.00,5158.29003,N,00402.65797,E,1,10,1.25,1.4,M,45.9,M,,*55
"
1622561350.403116,"$GPGSA,A,3,28,27,21,23,32,08,22,10,14,01,,,2.26,1.25,1.88*02
"
1622561350.4711065,"$GPGSV,3,1,12,01,35,268,35,03,03,214,30,08,76,187,44,10,41,057,43*77
"
1622561350.570458,"$GPGSV,3,2,12,14,19,319,33,21,61,275,45,22,30,211,29,23,10,046,35*76
"
1622561350.6379504,"$GPGSV,3,3,12,27,44,143,44,28,09,331,34,32,28,107,42,39,09,114,34*77
"
1622561350.6816332,"$GPGLL,5158.29003,N,00402.65797,E,152910.00,A,A*6A
"
1622561350.7660065,"!AIVDM,1,1,,B,13`oeUPP22PBvQ`Mg1cd1?vDR0RE,0*18
"
1622561350.7917714,"!AIVDM,1,1,,B,13aLrh000NPB4dDMdLKu8:hD05ql,0*05
"
1622561350.9775174,"!AIVDM,1,1,,A,13aDCs0P000BMM0Mf:gk:gvBP0SO,0*1B
"
1622561351.0325994,"!AIVDM,1,1,,B,33aKWAoP00PBQ2@Megpv4?vD2@81,0*1C
"
1622561351.113087,"!AIVDM,1,1,,B,13`jdOhP000BMN8Mf@6@0?vB0<3w,0*19
"
1622561351.1635246,"!AIVDM,1,1,,B,13aI:;5P1<PBDs>Mfs@F8wvF2D5H,0*57
"
1622561351.240597,"$GPRMC,152911.00,A,5158.29052,N,00402.65817,E,1.792,16.75,010621,,,A*53
"
1622561351.283376,"!AIVDM,1,1,,A,13`v660PCkPBnRLMg>QR71RB05ql,0*01
"
1622561351.337104,"$GPVTG,16.75,T,,M,1.792,N,3.319,K,A*0D
"
1622561351.351624,"$GPGGA,152911.00,5158.29052,N,00402.65817,E,1,10,0.92,1.2,M,45.9,M,,*5C
"
1622561351.4031396,"!AIVDM,1,1,,A,13a5Jn0000PBpa8MgLC726PD286W,0*06
"
1622561351.413741,"!AIVDM,1,1,,B,13aIk=7P000BJSrMd:j9q?vF2H6W,0*02
"
1622561351.4699306,"$GPGSA,A,3,28,27,21,23,32,08,22,10,14,01,,,1.79,0.92,1.53*00
"
1622561351.4864948,"!AIVDM,1,1,,A,14Qvm`00000CCP<MeMuCPQ:H0@6b,0*51
"
1622561351.503488,"!AIVDM,2,1,9,B,5815N282G5i=KL7C?3TQ<j05@PDq>22222222216HhO;E5OG0MkS884U,0*49
"
1622561351.5141091,"!AIVDM,2,2,9,B,3H8888888888880,2*55
"
1622561351.5729995,"$GPGSV,3,1,12,01,35,268,35,03,03,214,29,08,76,187,43,10,41,057,46*7D
"
1622561351.6337118,"!AIVDM,1,1,,B,13`eHVP000PBpdHMgLfSWVTD05ql,0*48
"
1622561351.6853366,"!AIVDM,1,1,,A,13c8680P01PBoUpMgMl;IgvH0<8n,0*32
"
1622561351.7021956,"$GPGSV,3,2,12,14,19,319,33,21,61,275,44,22,30,211,32,23,10,046,33*7B
"
1622561351.712899,"!AIVDM,1,1,,A,?02E3M@rFt8PD00,2*0E
"
1622561351.7350204,"$GPGSV,3,3,12,27,44,143,46,28,09,331,35,32,28,107,39,39,09,114,33*7F
"
1622561351.7458754,"$GPGLL,5158.29052,N,00402.65817,E,152911.00,A,A*68
"
1622561351.7565675,"!AIVDM,1,1,,B,?02E3M@rFt8PD00,2*0D
"
1622561351.7671735,"!AIVDM,1,1,,B,13aK`5PP00PC00LMfc1LI?vF286n,0*26
"
1622561351.8578901,"!AIVDM,1,1,,A,13aL>>PP00PBAqRMfVnh0?vF2<78,0*3C
"
1622561351.8835337,"!AIVDM,1,1,,B,33`gb9@P@00Bf=<Mfp2`En2F00r1,0*19
"
1622561351.9378505,"!AIVDM,1,1,,B,13`hBw0P1K0CeF>MdPpc3OvD05ql,0*52
"
1622561352.0189428,"!AIVDM,1,1,,B,13aDof0P1<PBPh@Mg6UruwvF2871,0*09
"
1622561352.2372565,"$GPRMC,152912.00,A,5158.29101,N,00402.65835,E,1.744,16.20,010621,,,A*5C
"
1622561352.276795,"!AIVDM,1,1,,B,?02E3M@rFt8QP00,2*18
"
1622561352.3339753,"$GPVTG,16.20,T,,M,1.744,N,3.229,K,A*04
"
1622561352.3484054,"$GPGGA,152912.00,5158.29101,N,00402.65835,E,1,10,1.25,1.0,M,45.9,M,,*57
"
1622561352.400595,"$GPGSA,A,3,28,27,21,23,32,08,22,10,14,01,,,2.26,1.25,1.88*02
"
1622561352.414632,"!AIVDM,1,1,,A,33`e9EEP00PBLibMfA7f4?vH2Db:,0*3F
"
1622561352.4754972,"$GPGSV,3,1,12,01,35,268,35,03,03,214,29,08,76,187,44,10,41,057,45*79
"
1622561352.486113,"!AIVDM,1,1,,A,13aBKS@P2APBdNNMfSr@TgvH287@,0*30
"
1622561352.5691407,"$GPGSV,3,2,12,14,19,319,36,21,61,275,44,22,30,211,32,23,10,046,36*7B
"
1622561352.6299589,"!AIVDM,1,1,,B,13`m6U0P00PBQF0Mfp?@0?vH2<7R,0*62
"
1622561352.6901038,"$GPGSV,3,3,12,27,44,143,44,28,09,331,35,32,28,107,41,39,09,114,32*73
"
1622561352.700448,"!AIVDM,1,1,,A,13aGt`0P00PBnuHMfb;N4?vH2<6O,0*49
"
1622561352.7154136,"$GPGLL,5158.29101,N,00402.65835,E,152912.00,A,A*6C
"
1622561352.725839,"!AIVDM,1,1,,B,13aDCW@P15PCA22Mf0cKe?vHR0ST,0*62
"
1622561352.847195,"!AIVDM,1,1,,B,13aBL80P0VPBPHrMgBMc4?vHRL7w,0*23
"
1622561352.950722,"!AIVDM,1,1,,B,14RQol5Oj`PB3;@MiGh;Ga@F0@7T,0*09
"
1622561352.9759526,"!AIVDM,1,1,,B,33aN`dPP@APAnl`MidM0t0hH010P,0*44
"
1622561353.0566788,"!AIVDM,1,1,,A,13`hBQPP010Bnq8Mfd9PBwvJ25ql,0*5E
"
1622561353.1674173,"!AIVDM,1,1,,B,13aIj>0P00PBp`>MfK4DPgvJ20SM,0*00
"
1622561353.237896,"$GPRMC,152913.00,A,5158.29152,N,00402.65853,E,1.742,15.68,010621,,,A*52
"
1622561353.2781794,"$GPVTG,15.68,T,,M,1.742,N,3.226,K,A*02
"
1622561353.3377872,"$GPGGA,152913.00,5158.29152,N,00402.65853,E,1,10,1.25,0.9,M,45.9,M,,*58
"
1622561353.4003274,"$GPGSA,A,3,28,27,21,23,32,08,22,10,14,01,,,2.26,1.25,1.88*02
"
1622561353.4144928,"!AIVDM,1,1,,A,13`g94000RPB8G6MeHUiuQPJ0L5s,0*4F
"
1622561353.466571,"!AIVDM,1,1,,A,133g8cPP00PC5OpMebQN4?vJ2H7m,0*70
"
1622561353.4834392,"$GPGSV,3,1,12,01,35,268,34,03,03,214,29,08,76,187,44,10,41,057,45*78
"
1622561353.500009,"!AIVDM,1,1,,B,33`v660PCnPBn`4Mg>p1wQJF06sk,0*37
"
1622561353.5104868,"!AIVDM,1,1,,B,33`fL=000gPBd`>Mf5rTEkFHPPn1,0*6A
"
1622561353.5660717,"!AIVDM,1,1,,B,13fK8g@016PBrklMg;@lmCvJ0@7p,0*5D
"
1622561353.5829,"$GPGSV,3,2,12,14,19,319,39,21,61,275,44,22,30,211,28,23,10,046,36*7F
"
1622561353.6371126,"$GPGSV,3,3,12,27,44,143,45,28,09,331,36,32,28,107,41,39,09,114,32*71
"
1622561353.6837893,"!AIVDM,1,1,,A,39NSW=E000PBBR4Mfp6:UEJJ0lsb,0*12
"
1622561353.6954465,"$GPGLL,5158.29152,N,00402.65853,E,152913.00,A,A*6B
"
1622561353.8877015,"!AIVDM,1,1,,B,13aBNF@P00PBGCpMfdGf4?vJRD4w,0*76
"
1622561353.937724,"!AIVDM,1,1,,B,13aDqIhP00PBMLTMf:Mf4?vJR889,0*23
"
1622561353.967767,"!AIVDM,1,1,,B,13anGb000QPBgBrMgTcT:SBJ05ql,0*19
"
1622561354.042881,"!AIVDM,1,1,,B,33aI:;5P1;PBDtTMfs261wvL2001,0*36
"
1622561354.0984964,"!AIVDM,1,1,,B,133kjEPP0APBPn@Mg@@hd?vJR<71,0*00
"
1622561354.123559,"!AIVDM,1,1,,B,13euk20000PBA9tMgK@an5FF0@8@,0*63
"
1622561354.153404,"!AIVDM,1,1,,B,13dn=000000BFf<Mfm4RirvJ0H8A,0*48
"
1622561354.2383642,"$GPRMC,152914.00,A,5158.29200,N,00402.65871,E,1.730,15.24,010621,,,A*5C
"
1622561354.278273,"$GPVTG,15.24,T,,M,1.730,N,3.203,K,A*08
"
1622561354.3388681,"$GPGGA,152914.00,5158.29200,N,00402.65871,E,1,10,0.92,0.6,M,45.9,M,,*59
"
1622561354.4005198,"$GPGSA,A,3,28,27,21,23,32,08,22,10,14,01,,,1.79,0.92,1.53*00
"
1622561354.4145358,"!AIVDM,1,1,,B,13aDoTP000PBSBlMewUBpB:J00Sd,0*0B
"
1622561354.4760184,"$GPGSV,3,1,12,01,35,268,34,03,03,214,28,08,76,187,44,10,41,057,43*7F
"
1622561354.4863603,"!AIVDM,1,1,,A,33`gb9@0000Bf=<Mfp2phn2L0000,0*7E
"
1622561354.4971337,"!AIVDM,1,1,,A,13aN2UOP02PBQ5fMg4=tJ?vL288N,0*05
"
1622561354.5758083,"$GPGSV,3,2,12,14,19,319,39,21,61,275,44,22,30,211,27,23,10,046,38*7E
"
1622561354.586484,"!AIVDM,1,1,,A,13aEOd@P0I0Bl1DMfkCISgvL0H8O,0*62
"
1622561354.6380851,"$GPGSV,3,3,12,27,44,143,43,28,09,331,36,32,28,107,41,39,09,114,32*77
"
1622561354.6849945,"$GPGLL,5158.29200,N,00402.65871,E,152914.00,A,A*68
"
1622561354.6956017,"!AIVDM,1,1,,B,13aLkqhP1:PBdg0Mfpp4cgvL2D6N,0*2D
"
1622561354.7672136,"!AIVDM,1,1,,B,13aJI600000BBSlMflDpi5JL00Rr,0*75
"
1622561354.938565,"!AIVDM,2,1,1,B,53v7?b82DWRA<M9V22184l4p@62222222222221I?0NA65Ph0@DSm51D,0*73
"
1622561354.9491706,"!AIVDM,2,2,1,B,Q0CH88888888880,2*4C
"
1622561354.9596727,"!AIVDM,1,1,,A,139aBjPP1HPBRB4MeqvRi?vLR<7S,0*00
"
1622561355.113369,"!AIVDM,1,1,,B,33aI9:@P0IPBkQnMfpj`IgvL23SQ,0*67
"
1622561355.2367854,"$GPRMC,152915.00,A,5158.29245,N,00402.65889,E,1.716,15.58,010621,,,A*54
"
1622561355.2781105,"$GPVTG,15.58,T,,M,1.716,N,3.178,K,A*08
"
1622561355.3341355,"!AIVDM,1,1,,A,13`v660PCqPBneHMg?<1p1@J088s,0*21
"
1622561355.3509576,"$GPGGA,152915.00,5158.29245,N,00402.65889,E,1,10,1.25,0.3,M,45.9,M,,*56
"
1622561355.402494,"$GPGSA,A,3,28,27,21,23,32,08,22,10,14,01,,,2.26,1.25,1.88*02
"
1622561355.4705637,"$GPGSV,3,1,12,01,35,268,35,03,03,214,28,08,76,187,44,10,41,057,45*78
"
1622561355.510224,"!AIVDM,1,1,,A,13ev>H00000Bu2HMfoV:51>F0<<P,0*08
"
1622561355.5694256,"$GPGSV,3,2,12,14,19,319,40,21,61,275,44,22,30,211,32,23,10,046,37*7B
"
1622561355.6368663,"$GPGSV,3,3,12,27,44,143,41,28,09,331,32,32,28,107,43,39,09,114,32*73
"
1622561355.6810253,"$GPGLL,5158.29245,N,00402.65889,E,152915.00,A,A*6F
"
1622561355.726134,"!AIVDM,1,1,,B,13JNv:0P010C@4FMeaB:7?vP0@9<,0*25
"
1622561355.7810488,"!AIVDM,1,1,,A,13bOLT00000CSh4MdCck?JfN0<<P,0*32
"
1622561356.0127034,"!AIVDM,2,1,2,B,533m:W`00000uC?C?<1<DhtpT4000000000000007H;34uID06CCBDhU,0*7B
"
1622561356.0234065,"!AIVDM,2,2,2,B,DQp888888888800,2*70
"
1622561356.0341592,"!AIVDM,1,1,,A,13aN1IhP00PBQ9bMf@TFR?vN2D7P,0*6E
"
1622561356.0471177,"!AIVDM,1,1,,B,402Dw?1vEPgM>0Ad38MaM=g02D=I,0*4E
"
1622561356.0719981,"!AIVDM,1,1,,A,13aDowhP19PBvfDMfbuE9?vN289I,0*52
"
1622561356.1274664,"!AIVDM,1,1,,A,33e>cJ0OiL0BlkfMg7gTUS`N012h,0*40
"
1622561356.2487116,"$GPRMC,152916.00,A,5158.29287,N,00402.65903,E,1.705,15.30,010621,,,A*56
"
1622561356.2802842,"$GPVTG,15.30,T,,M,1.705,N,3.157,K,A*09
"
1622561356.3350096,"!AIVDM,1,1,,B,13`lRU0P1:PBeP:Mfn=U1OvP289P,0*4C
"
1622561356.3524575,"$GPGGA,152916.00,5158.29287,N,00402.65903,E,1,10,0.92,0.0,M,45.9,M,,*56
"
1622561356.4025362,"!AIVDM,1,1,,A,33`fL=000gPBdb8Mf5o4D3DNPP00,0*12
"
1622561356.4163525,"$GPGSA,A,3,28,27,21,23,32,08,22,10,14,01,,,1.79,0.92,1.53*00
"
1622561356.4678442,"!AIVDM,1,1,,B,13m91<001kPB9v`MiN>svInN05ql,0*39
"
1622561356.4850197,"$GPGSV,3,1,12,01,35,268,35,03,03,214,28,08,76,187,44,10,41,057,46*7B
"
1622561356.496448,"!AIVDM,1,1,,A,13aEN`PP01PBWS@Mg6tRFwvN2L9M,0*40
"
1622561356.5757477,"$GPGSV,3,2,12,14,19,319,39,21,61,275,43,22,30,211,36,23,10,046,39*78
"
1622561356.5863752,"!AIVDM,1,1,,A,13aIhvwP0tPBMT2Mg?=lDOvP2@9b,0*08
"
1622561356.632521,"!AIVDM,1,1,,B,833m:WPj2d=d<<t>MAGPS?aE7l00,0*6A
"
1622561356.692993,"$GPGSV,3,3,12,27,44,143,41,28,09,331,32,32,28,107,43,39,09,114,32*73
"
1622561356.7036238,"!AIVDM,1,1,,B,13aoiP00000BpSRMgMKv40BP0p9e,0*43
"
1622561356.718459,"$GPGLL,5158.29287,N,00402.65903,E,152916.00,A,A*61
"
1622561356.7291033,"!AIVDM,1,1,,A,13:BN>301MPBQT@MiF4hU0TR0<<h,0*01
"
1622561356.8037975,"!AIVDM,2,1,3,B,53`e9EH000010K?3SH0@DpHu8@0000000000001?<8=A6t0Ht0000000,0*76
"
1622561356.8144245,"!AIVDM,2,2,3,B,000000000000000,2*24
"
1622561356.908558,"!AIVDM,2,1,8,A,539p:e42DI;@@`UK:20H4U90h5V1PV222222220l1`=775>n0@DSm51D,0*78
"
1622561356.9191,"!AIVDM,2,2,8,A,Q0CH88888888880,2*46
"
1622561356.9778206,"!AIVDM,1,1,,B,13lo@t0000PBtc<MfqDuHA>L05ql,0*21
"
1622561357.002732,"!AIVDM,1,1,,A,14SHkL80000BgcjMfvgQAa>R0D:5,0*57
"
1622561357.0337517,"!AIVDM,1,1,,B,13aGse001JPBmSBMeuCD4k?nP<4v,0*78
"
1622561357.2391472,"$GPRMC,152917.00,A,5158.29328,N,00402.65918,E,1.626,14.54,010621,,,A*5A
"
1622561357.2824993,"!AIVDM,1,1,,A,13aBNa@P140BU6fMfG4b4gvNP5ql,0*63
"
1622561357.3355632,"$GPVTG,14.54,T,,M,1.626,N,3.011,K,A*09
"
1622561357.3461454,"!AIVDM,1,1,,B,13`v660PCrPBnjHMg?U1cQ8N08:6,0*0F
"
1622561357.4070761,"$GPGGA,152917.00,5158.29328,N,00402.65918,E,1,10,0.92,-0.2,M,45.9,M,,*76
"
1622561357.4687448,"!AIVDM,1,1,,A,33aI8g@P1=PBGKLMgI6l=?vP24:3,0*0D
"
1622561357.4852653,"$GPGSA,A,3,28,27,21,23,32,08,22,10,14,01,,,1.79,0.92,1.53*00
"
1622561357.502336,"$GPGSV,3,1,12,01,35,268,35,03,03,214,28,08,76,187,43,10,41,057,44*7E
"
1622561357.5136216,"!AIVDM,1,1,,B,33eP<P0OiDPBge<MgAejK2@L019A,0*6A
"
1622561357.5765545,"$GPGSV,3,2,12,14,19,319,37,21,61,275,43,22,30,211,38,23,10,046,39*78
"
1622561357.5871823,"!AIVDM,1,1,,B,15Dhel001vPB@`<MhUNcE98T05ql,0*18
"
1622561357.6387408,"$GPGSV,3,3,12,27,44,143,40,28,09,331,32,32,28,107,42,39,09,114,32*73
"
1622561357.6848416,"$GPGLL,5158.29328,N,00402.65918,E,152917.00,A,A*6E
"
1622561357.6960359,"!AIVDM,1,1,,B,83`e9E@j2d<dtv==t29Qk?hh00L0,0*77
"
1622561357.727733,"!AIVDM,1,1,,B,33aFgOP002PBv42MfigGbqdR2000,0*6F
"
1622561357.8031247,"!AIVDM,1,1,,B,33aDqBmP00PBOq0MfEm9p?vRRDr:,0*1D
"
1622561357.9935262,"!AIVDM,1,1,,B,13aSQ700000BG9LMfmB74s:T0D:j,0*0D
"
1622561358.0186963,"!AIVDM,1,1,,A,33`kqh001cPBnLlMjqiqUWdR0100,0*41
"
1622561358.0847952,"!AIVDM,2,1,9,A,59NS8MP2>R:D7PMON20q>0<tq=Dj22222222221II8cAI5PdNTlUH5C5,0*3F
"
1622561358.0954757,"!AIVDM,2,2,9,A,H?`3S84U3H88880,2*78
"
1622561358.1058834,"!AIVDM,1,1,,B,33`gb9@0000Bf=<Mfp2pvn0R00uh,0*62
"
1622561358.238927,"$GPRMC,152918.00,A,5158.29372,N,00402.65937,E,1.716,14.87,010621,,,A*5B
"
1622561358.2826278,"!AIVDM,1,1,,B,13`ogTUP00PBavjMfPIf4?vTRD4R,0*7C
"
1622561358.335203,"$GPVTG,14.87,T,,M,1.716,N,3.178,K,A*0B
"
1622561358.3459675,"!AIVDM,1,1,,A,13aEQ8hP00PBw;fMfLC>4?vT25ql,0*40
"
1622561358.4062521,"$GPGGA,152918.00,5158.29372,N,00402.65937,E,1,10,0.92,-0.3,M,45.9,M,,*7A
"
1622561358.4684954,"!AIVDM,1,1,,B,13aBKS@P2@PBdQ2MfTbhTgvR25ql,0*13
"
1622561358.4853418,"$GPGSA,A,3,28,27,21,23,32,08,22,10,14,01,,,1.79,0.92,1.53*00
"
1622561358.5021966,"$GPGSV,3,1,12,01,35,268,35,03,03,214,28,08,76,187,43,10,41,057,42*78
"
1622561358.5141494,"!AIVDM,1,1,,B,19NS8MP0000BaR0Mg7CmFThV0D@b,0*1D
"
1622561358.5714643,"$GPGSV,3,2,12,14,19,319,35,21,61,275,43,22,30,211,38,23,10,046,38*7B
"
1622561358.632275,"!AIVDM,1,1,,A,13euWD:01OPBe<0Mg6Q1a1DT0@:m,0*33
"
1622561358.6918347,"$GPGSV,3,3,12,27,44,143,45,28,09,331,35,32,28,107,41,39,09,114,31*71
"
1622561358.7024233,"$GPGLL,5158.29372,N,00402.65937,E,152918.00,A,A*63
"
1622561358.717542,"!AIVDM,1,1,,B,13aGDk@P1MPBspdMeoVJr?vT25ql,0*19
"
1622561358.7281947,"!AIVDM,1,1,,B,139aLjPP1>0BQpFMes@Iw?vRP0SF,0*08
"
1622561358.7627192,"!AIVDM,2,1,4,B,53a;pr42@OLi0PaF221=@Dp61A84q<UB2222220u0k>;@=Q5?>kS825R,0*19
"
1622561358.7733238,"!AIVDM,2,2,4,B,81hRj3H5p888880,2*7C
"
1622561358.9525025,"!AIVDM,1,1,,B,14`W:b0000PC@KDMe`QC5abV00SG,0*3D
"
1622561359.0078142,"!AIVDM,1,1,,A,13aGDshP00PBnpBMfh:P0?vT2H;7,0*31
"
1622561359.032719,"!AIVDM,1,1,,B,13aER50P00PBtP2MfrB7ROvTR@;8,0*02
"
1622561359.113015,"!AIVDM,1,1,,B,13aDoS0P0RPBcMbMf6h4pwv`R<8T,0*30
"
1622561359.239513,"$GPRMC,152919.00,A,5158.29414,N,00402.65953,E,1.644,14.24,010621,,,A*50
"
1622561359.282476,"!AIVDM,1,1,,B,33`fL=000gPBdd0Mf5klBCDTPQ1P,0*4F
"
1622561359.334831,"$GPVTG,14.24,T,,M,1.644,N,3.045,K,A*0B
"
1622561359.3451154,"!AIVDM,1,1,,B,19NSLhD01EPB`WVMgWB4P3TD08;@,0*6C
"
1622561359.4061563,"$GPGGA,152919.00,5158.29414,N,00402.65953,E,1,10,0.92,-0.5,M,45.9,M,,*78
"
1622561359.4679875,"!AIVDM,1,1,,A,14RQol5OjWPB2s`MiH9;GaBR0D6c,0*2E
"
1622561359.485285,"!AIVDM,1,1,,A,133m:WPP000BQM>MfpOv4?vVPD7w,0*5A
"
1622561359.4957833,"$GPGSA,A,3,28,27,21,23,32,08,22,10,14,01,,,1.79,0.92,1.53*00
"
1622561359.5080886,"!AIVDM,1,1,,A,14S0lB000o0Bi04Mg@<4GkP`0<=u,0*14
"
1622561359.571067,"$GPGSV,3,1,12,01,35,268,35,03,03,214,29,08,76,187,44,10,41,057,44*78
"
1622561359.6323636,"!AIVDM,1,1,,A,13`v660PCsPBnnhMg@0QLQ6R05ql,0*72
"
1622561359.6855774,"!AIVDM,1,1,,B,139p:e0000PBgS2Mfvw0okT`00R?,0*62
"
1622561359.7027004,"$GPGSV,3,2,12,14,19,319,37,21,61,275,43,22,30,211,34,23,10,046,39*74
"
1622561359.7191267,"!AIVDM,1,1,,A,33aDqemP000BAS6MfRtd7?vRPDo:,0*78
"
1622561359.7294772,"!AIVDM,1,1,,A,13iPca0P0@PBnT:Mff=lEwvVRD3w,0*41
"
1622561359.7433636,"$GPGSV,3,3,12,27,44,143,44,28,09,331,37,32,28,107,39,39,09,114,34*78
"
1622561359.7603354,"!AIVDM,1,1,,A,333rN4UP010BnrDMffdVkOvT0DiJ,0*1D
"
1622561359.7777705,"$GPGLL,5158.29414,N,00402.65953,E,152919.00,A,A*67
"
1622561359.788464,"!AIVDM,1,1,,A,35Pt8`5000PBS36MgA7FaEDT0EJJ,0*46
"
1622561359.7991238,"!AIVDM,1,1,,B,33e>cJ0OiL0Blo2Mg7VlWCbT00i0,0*12
"
1622561359.9646463,"!AIVDM,1,1,,A,13`oeUPP21PBvD`Mg2M<0gvVR5ql,0*3C
"
1622561359.9946377,"!AIVDM,1,1,,A,14cnKP001m0BDMpMhdLKaIFT0p;c,0*06
"
1622561360.168972,"!AIVDM,1,1,,A,ENjNi3Q`pqPnPh860b37a6P0000@9Mpf>saMhj6FFCvN00,4*32
"
1622561360.2399302,"$GPRMC,152920.00,A,5158.29458,N,00402.65971,E,1.670,14.61,010621,,,A*54
"
1622561360.283624,"!AIVDM,1,1,,A,402E3MAvEPgMCPBlo@MgVLQ02D:q,0*5D
"
1622561360.3357108,"$GPVTG,14.61,T,,M,1.670,N,3.094,K,A*01
"
1622561360.346327,"!AIVDM,1,1,,A,402E3MQvEPgMCPCgs2Md@WG000S:,0*65
"
1622561360.40686,"$GPGGA,152920.00,5158.29458,N,00402.65971,E,1,10,0.92,-0.6,M,45.9,M,,*79
"
1622561360.4690418,"!AIVDM,1,1,,A,13aG7b00000Bv78MfQ=UlQBT0<<J,0*1F
"
1622561360.485436,"!AIVDM,1,1,,B,13aGG>PP00PBup>Mfl5f4?v`2D6:,0*22
"
1622561360.4962232,"!AIVDM,1,1,,B,13b?AJ7PABPAs`rMc:9hT@JB08;p,0*7F
"
1622561360.5086467,"$GPGSA,A,3,28,27,21,23,32,08,22,10,14,01,,,1.79,0.92,1.53*00
"
1622561360.57679,"$GPGSV,3,1,12,01,35,268,36,03,03,214,31,08,76,187,43,10,41,057,44*75
"
1622561360.5899932,"$GPGSV,3,2,12,14,19,319,36,21,61,275,43,22,30,211,36,23,10,046,39*77
"
1622561360.6388648,"$GPGSV,3,3,12,27,44,143,41,28,09,331,36,32,28,107,39,39,09,114,33*7B
"
1622561360.6833289,"$GPGLL,5158.29458,N,00402.65971,E,152920.00,A,A*65
"
1622561360.738107,"!AIVDM,1,1,,B,13aDCs0P000BMMTMf:jS:gvVP0SD,0*56
"
1622561360.8733792,"!AIVDM,1,1,,A,33b17:50000BPipMg4ms0SJV0Db:,0*15
"
1622561361.2395515,"$GPRMC,152921.00,A,5158.29504,N,00402.65991,E,1.610,14.24,010621,,,A*54
"
1622561361.2811246,"$GPVTG,14.24,T,,M,1.610,N,2.982,K,A*09
"
1622561361.3345563,"!AIVDM,1,1,,B,13`v660OkuPBnrlMg@L1BQ2V0@<K,0*55
"
1622561361.352259,"$GPGGA,152921.00,5158.29504,N,00402.65991,E,1,10,0.92,-0.6,M,45.9,M,,*7E
"
1622561361.40365,"$GPGSA,A,3,28,27,21,23,32,08,22,10,14,01,,,1.79,0.92,1.54*07
"
1622561361.4772952,"$GPGSV,3,1,12,01,35,268,36,03,03,214,31,08,76,187,43,10,41,057,41*70
"
1622561361.4878082,"!AIVDM,1,1,,A,13`jdOhP000BMN8Mf@6@0?v`0@<R,0*6E
"
1622561361.502386,"!AIVDM,1,1,,A,1342dB00000Bu6DMfoUrJK3p0Uq`,0*24
"
1622561361.5130982,"!AIVDM,1,1,,A,13aK`5PP00PC00>Mfc2L9?vb28<T,0*30
"
1622561361.5769587,"$GPGSV,3,2,12,14,19,319,36,21,61,275,44,22,30,211,33,23,10,046,37*7B
"
1622561361.5877273,"!AIVDM,1,1,,A,13aKWAoP00PBQ1tMegr>4?vb20Rj,0*07
"
1622561361.638963,"$GPGSV,3,3,12,27,44,143,42,28,09,331,36,32,28,107,41,39,09,114,33*77
"
1622561361.6849148,"!AIVDM,1,1,,B,?39cN32G`o<4D00,2*3A
"
1622561361.6954074,"$GPGLL,5158.29504,N,00402.65991,E,152921.00,A,A*62
"
1622561361.705905,"!AIVDM,1,1,,A,33:p<B5001PBTQ4Mfrwp88:b0000,0*33
"
1622561361.8830056,"!AIVDM,1,1,,B,13a5Jn0000PBpa8MgLC726P`2@<k,0*6F
"
1622561361.9938734,"!AIVDM,1,1,,A,33`gb9@0000Bf=:Mfp2qRV2b00oA,0*7B
"
1622561362.240499,"$GPRMC,152922.00,A,5158.29550,N,00402.66014,E,1.628,14.09,010621,,,A*55
"
1622561362.2810848,"$GPVTG,14.09,T,,M,1.628,N,3.015,K,A*0B
"
1622561362.3371081,"!AIVDM,1,1,,B,33ku9ji1h10AAONMerq<TR0b0DfJ,0*43
"
1622561362.3541439,"$GPGGA,152922.00,5158.29550,N,00402.66014,E,1,10,0.92,-0.6,M,45.9,M,,*7B
"
1622561362.403863,"$GPGSA,A,3,28,27,21,23,32,08,22,10,14,01,,,1.79,0.92,1.54*07
"
1622561362.4170518,"!AIVDM,1,1,,B,13`jg:w0020C6:nMfAL@2b<dP5ql,0*32
"
1622561362.473248,"$GPGSV,3,1,12,01,35,268,36,03,03,214,31,08,76,187,42,10,41,057,43*73
"
1622561362.5779135,"$GPGSV,3,2,12,14,19,319,37,21,61,275,43,22,30,211,36,23,10,046,36*79
"
1622561362.5933886,"!AIVDM,2,1,1,A,53`eSP82Em@i0T=N220hTpLE=A8ttn222222220l1PG845M808@C1F2@,0*6F
"
1622561362.6317656,"!AIVDM,2,2,1,A,H20EQC`88888880,2*60
"
1622561362.6954284,"$GPGSV,3,3,12,27,44,143,41,28,09,331,36,32,28,107,41,39,09,114,33*74
"
1622561362.7060704,"!AIVDM,1,1,,B,13aL>>PP00PBApdMfVl@0?vd28=>,0*08
"
1622561362.7206655,"$GPGLL,5158.29550,N,00402.66014,E,152922.00,A,A*67
"
1622561362.73124,"!AIVDM,1,1,,A,83aENg@j2d<dtMNLdib@a?a@88t0,0*2B
"
1622561362.7648935,"!AIVDM,1,1,,B,14Qvm`00000CCPLMeMskPQ:f00RD,0*10
"
1622561362.790063,"!AIVDM,1,1,,B,13aGt`0P00PBnuLMfb:f4?vd20SR,0*3F
"
1622561362.8702617,"!AIVDM,1,1,,A,13aBL80P0SPBPCdMgBNJoOvdRD7w,0*1D
"
1622561362.9509604,"!AIVDM,1,1,,B,33aI:;5P1<PBE2@MfrM5d?vd2001,0*2A
"
1622561362.9810233,"!AIVDM,1,1,,B,13aI:;5P1<PBE2@MfrM5d?vd2D5Q,0*39
"
1622561363.0061073,"!AIVDM,1,1,,B,139s>60uQt0CLqjMe6MsmINd00Rj,0*37
"
1622561363.1414502,"!AIVDM,1,1,,A,33`fL=000gPBdfRMf5gT?SBdPPp1,0*62
"
1622561363.2387068,"$GPRMC,152923.00,A,5158.29594,N,00402.66038,E,1.706,14.19,010621,,,A*5E
"
1622561363.282844,"!AIVDM,1,1,,A,13aDpc0P00PBM`TMf1UN4?vd2D54,0*76
"
1622561363.3358777,"$GPVTG,14.19,T,,M,1.706,N,3.159,K,A*0E
"
1622561363.3465257,"!AIVDM,1,1,,A,33aDBIEP2?PBev0MfnDMV?vd22wi,0*08
"
1622561363.407885,"$GPGGA,152923.00,5158.29594,N,00402.66038,E,1,10,0.92,-0.6,M,45.9,M,,*7C
"
1622561363.4683073,"!AIVDM,1,1,,A,13`v660OkwPBnvTMg@r1=Q0b05ql,0*00
"
1622561363.4851575,"!AIVDM,2,1,5,B,53`e?5D000010K?S;00hEH4q@D0000000000001?9@<47vU0003hm8;K,0*42
"
1622561363.501702,"!AIVDM,2,2,5,B,H81EDSl3klU85UP,2*04
"
1622561363.5125556,"$GPGSA,A,3,28,27,21,23,32,08,22,10,14,01,,,1.79,0.92,1.54*07
"
1622561363.5733023,"!AIVDM,2,1,2,A,53P<:DT2?fJO8@lwJ21=@Dp6098U@4ppT<62220t3KE@@5Ph?>3S825R,0*68
"
1622561363.6306067,"!AIVDM,2,2,2,A,0H8888888888880,2*5E
"
1622561363.6942124,"$GPGSV,3,1,12,01,35,268,37,03,03,214,32,08,76,187,43,10,41,057,39*7D
"
1622561363.7048059,"!AIVDM,1,1,,B,83`e?5@j2d<dtN=NLicPq?ch00P0,0*7F
"
1622561363.718762,"!AIVDM,1,1,,B,13`hBQPP050Bnq8Mfd9hCOvf2H=h,0*41
"
1622561363.7360015,"$GPGSV,3,2,12,14,19,319,35,21,61,275,43,22,30,211,36,23,10,046,39*74
"
1622561363.7465465,"!AIVDM,1,1,,A,13fK8g@017PBrs`Mg:jls3tf08=j,0*48
"
1622561363.769507,"$GPGSV,3,3,12,27,44,143,40,28,09,331,36,32,28,107,37,39,09,114,34*73
"
1622561363.7800357,"!AIVDM,1,1,,A,13aIj>0P00PBpWpMfK5mLgvf2<7`,0*27
"
1622561363.794617,"$GPGLL,5158.29594,N,00402.66038,E,152923.00,A,A*60
"
1622561363.8052711,"!AIVDM,1,1,,B,13aB:A0P00PBw=hMfLSv4?vf2H=o,0*5E
"
1622561363.8201241,"!AIVDM,1,1,,A,13`m6U0P00PBQFDMfp?bTOvf2<7T,0*0B
"
1622561363.8307128,"!AIVDM,1,1,,A,13euk20000PBA9tMgK@an5Fb0<<P,0*2C
"
1622561363.8450353,"!AIVDM,1,1,,A,13aBKS@P2?PBdT0MfUU0T?vf2H=r,0*45
"
1622561363.855592,"!AIVDM,1,1,,A,13aBNF@P00PBGCvMfdGf4?vfR5ql,0*70
"
1622561363.8676295,"!AIVDM,1,1,,A,13aJI600000BBSnMflD8mELf00T1,0*21
"
1622561363.992075,"!AIVDM,1,1,,A,36KjOP5002PBTa@MfJ1o6`6H0Dg:,0*43
"
1622561364.0027268,"!AIVDM,1,1,,B,13euGd00000BFjlMfm3:9s0h0H>2,0*0F
"
1622561364.0702727,"!AIVDM,1,1,,A,13anGb000QPBgGHMgTTT<3Bf00RE,0*57
"
1622561364.1253715,"!AIVDM,1,1,,A,35B>G<50000BMlBMgFfMGq420Dg:,0*6D
"
1622561364.2466428,"$GPRMC,152924.00,A,5158.29642,N,00402.66064,E,1.725,14.26,010621,,,A*55
"
1622561364.280311,"$GPVTG,14.26,T,,M,1.725,N,3.194,K,A*02
"
1622561364.3371022,"!AIVDM,1,1,,B,13aEOd@P0G0BkvRMfk<9T?vh0D7w,0*76
"
1622561364.354221,"$GPGGA,152924.00,5158.29642,N,00402.66064,E,1,10,0.92,-0.7,M,45.9,M,,*7B
"
1622561364.4028363,"!AIVDM,1,1,,B,13aN2UOP01PBQ5lMg4=Kcwvh20SO,0*17
"
1622561364.4168885,"$GPGSA,A,3,28,27,21,23,32,08,22,10,14,01,,,1.79,0.92,1.54*07
"
1622561364.4786797,"$GPGSV,3,1,12,01,35,268,37,03,03,214,31,08,76,187,43,10,41,057,42*72
"
1622561364.489317,"!AIVDM,1,1,,A,133kjEPP0@PBPo0Mg@K@a?vfR<71,0*79
"
1622561364.5000732,"!AIVDM,1,1,,A,13aDqIhP00PBMLTMf:Mf4?vhR8>E,0*78
"
1622561364.5722308,"$GPGSV,3,2,12,14,19,319,37,21,61,275,43,22,30,211,37,23,10,046,37*79
"
1622561364.6387587,"$GPGSV,3,3,12,27,44,143,44,28,09,331,36,32,28,107,39,39,09,114,34*79
"
1622561364.685937,"$GPGLL,5158.29642,N,00402.66064,E,152924.00,A,A*66
"
1622561364.7024539,"!AIVDM,1,1,,B,33`gb9@0000Bf=:Mfp2qg62h0000,0*09
"
1622561364.7132218,"!AIVDM,1,1,,B,13`gLP0P08PBqPNMfS`8GOvh2<<C,0*6E
"
1622561364.7499077,"!AIVDM,2,1,6,B,59N`0np2<j8@CDTkL00l4TdF0@00000000000016>p>=55N9NBCS4U3@,0*19
"
1622561364.7605124,"!AIVDM,2,2,6,B,000000000000000,2*21
"
1622561364.9245343,"!AIVDM,1,1,,A,13aDoTP000PBSC<MewWjpB:h05ql,0*7E
"
1622561364.9788396,"!AIVDM,1,1,,B,13aDpUhP000CMBdMe9F9Lgvj2DCS,0*38
"
1622561365.028991,"!AIVDM,1,1,,B,13aEN`PP00PBWS:Mg6uAigvh2@>a,0*14
"
1622561365.0848925,"!AIVDM,1,1,,A,13dn=000000BFfTMfm2Birvh0<;J,0*6B
"
1622561365.2435737,"$GPRMC,152925.00,A,5158.29694,N,00402.66088,E,1.712,14.16,010621,,,A*5A
"
1622561365.2848666,"$GPVTG,14.16,T,,M,1.712,N,3.170,K,A*0F
"
1622561365.3452258,"$GPGGA,152925.00,5158.29694,N,00402.66088,E,1,10,0.92,-0.6,M,45.9,M,,*72
"
1622561365.4073904,"!AIVDM,1,1,,B,33eP<P0OiCPBgm0MgAqRl2Nb00qP,0*1A
"
1622561365.4214256,"$GPGSA,A,3,28,27,21,23,32,08,22,10,14,01,,,1.79,0.92,1.54*07
"
1622561365.4744,"!AIVDM,1,1,,B,33aoiP00010BpSLMgMLbVPFj0Pa0,0*5C
"
1622561365.4905286,"!AIVDM,1,1,,B,14RQol502`PB2g8MiHR;J9Ff0L6e,0*71
"
1622561365.5075924,"$GPGSV,3,1,12,01,35,268,38,03,03,214,31,08,76,187,43,10,41,057,38*70
"
1622561365.5181575,"!AIVDM,1,1,,B,13`v660PD0PBo3pMgAaQ610h00Rw,0*3A
"
1622561365.576798,"$GPGSV,3,2,12,14,19,319,37,21,61,275,43,22,30,211,41,23,10,046,40*78
"
1622561365.643156,"$GPGSV,3,3,12,27,44,143,44,28,09,331,36,32,28,107,34,39,09,114,34*74
"
1622561365.687458,"$GPGLL,5158.29694,N,00402.66088,E,152925.00,A,A*6E
"
1622561365.8561978,"!AIVDM,1,1,,B,13aFerhP00PBwOVMfKev4?vj20Si,0*0F
"
1622561365.8972683,"!AIVDM,1,1,,B,13aC580P010Bw34MffaW6gvhPD3K,0*33
"
1622561365.9927957,"!AIVDM,1,1,,A,13JNv:0P010C@4FMeaBJ7?vl0H?=,0*65
"
1622561366.0203462,"!AIVDM,1,1,,A,13f7kb001o0C=?TMf9Mca9Dj08?>,0*44
"
1622561366.0309112,"!AIVDM,1,1,,B,B3`gb=P0:p4WE=7LReoO3wdUkP06,0*19
"
1622561366.152575,"!AIVDM,1,1,,B,13aN1IhP00PBQ9`Mf@U@0?vl2<7U,0*55
"
1622561366.2405336,"$GPRMC,152926.00,A,5158.29743,N,00402.66111,E,1.669,14.21,010621,,,A*5A
"
1622561366.2838087,"!AIVDM,1,1,,B,33`fL=000gPBdhNMf5dD=kBjPP00,0*15
"
1622561366.3359923,"$GPVTG,14.21,T,,M,1.669,N,3.092,K,A*0B
"
1622561366.3464122,"!AIVDM,1,1,,B,13aDowhP1:PBvnpMfbHm7gvl2<4b,0*2D
"
1622561366.407374,"$GPGGA,152926.00,5158.29743,N,00402.66111,E,1,10,0.92,-0.5,M,45.9,M,,*78
"
1622561366.4707654,"!AIVDM,1,1,,B,139Fnw0000PBgs0Mfv?tiqBl08?H,0*28
"
1622561366.4872944,"$GPGSA,A,3,28,27,21,23,32,08,22,10,14,01,,,1.79,0.92,1.54*07
"
1622561366.4979472,"!AIVDM,1,1,,A,13`lRU0P19PBeaRMfmeTfOvl25ql,0*5D
"
1622561366.5102293,"!AIVDM,1,1,,B,83aBNS0j2d<dte<Ld29Pq?a@7<t0,0*3A
"
1622561366.5733747,"$GPGSV,3,1,12,01,35,268,39,03,03,214,32,08,76,187,43,10,41,057,35*7F
"
1622561366.6338127,"!AIVDM,1,1,,B,13aBNa@P130BTu>MfFs:6OvjP0Rp,0*57
"
1622561366.694556,"$GPGSV,3,2,12,14,19,319,37,21,61,275,43,22,30,211,41,23,10,046,40*78
"
1622561366.710717,"!AIVDM,2,1,3,A,53aEOdH000010K;?3L1<P4@uL00000000000001?:h088ukGJ54Sm51D,0*46
"
1622561366.721301,"!AIVDM,2,2,3,A,Q0C@00000000000,2*45
"
1622561366.7360702,"$GPGSV,3,3,12,27,44,143,44,28,09,331,37,32,28,107,35,39,09,114,34*74
"
1622561366.7531142,"!AIVDM,1,1,,B,13aIhvwP0uPBMd>Mg>wlE?vl20S4,0*7C
"
1622561366.7696128,"$GPGLL,5158.29743,N,00402.66111,E,152926.00,A,A*67
"
1622561366.7804217,"!AIVDM,1,1,,B,13ev>H00000Bu2HMfoV:51<f05ql,0*51
"
1622561366.7911005,"!AIVDM,1,1,,A,13m91<001iPB9irMiNvKwInj08?a,0*2E
"
1622561366.8192983,"!AIVDM,1,1,,B,14SHkL80000BgcjMfvg1Aa>n05ql,0*6B
"
1622561366.9516134,"!AIVDM,1,1,,B,13:BN>301MPBQWBMiFr@UhTn08?i,0*0F
"
1622561366.9622529,"!AIVDM,1,1,,A,13aoiP00010BpSLMgMM:VPFl0PSF,0*46
"
1622561367.030009,"!AIVDM,1,1,,B,13:SWp3020PBD7pMjK`F8Dbn08?l,0*18
"
1622561367.0596716,"!AIVDM,1,1,,B,13aQfUOP00PBG20Mfmlv4?vn2<38,0*26
"
1622561367.2404258,"$GPRMC,152927.00,A,5158.29800,N,00402.66144,E,1.761,14.33,010621,,,A*59
"
1622561367.2833836,"!AIVDM,1,1,,A,13`v660Ol1PBo5LMgApQ612j0<8>,0*0B
"
1622561367.3373232,"$GPVTG,14.33,T,,M,1.761,N,3.262,K,A*0C
"
1622561367.351951,"$GPGGA,152927.00,5158.29800,N,00402.66144,E,1,10,0.92,-0.3,M,45.9,M,,*77
"
1622561367.4030786,"!AIVDM,1,1,,B,B3IEeBP08p4cbLWKqH93cweUoP06,0*1C
"
1622561367.4166908,"$GPGSA,A,3,28,27,21,23,32,08,22,10,14,01,,,1.79,0.92,1.54*07
"
1622561367.4788198,"$GPGSV,3,1,12,01,35,268,40,03,03,214,32,08,76,187,42,10,41,057,41*73
"
1622561367.4894876,"!AIVDM,1,1,,A,139cN30P0;PBmQVMfhgevgvnRH@3,0*31
"
1622561367.505195,"!AIVDM,1,1,,B,133m:WPP000BQM<MfpPN4?vnP<7v,0*3D
"
1622561367.5158243,"!AIVDM,1,1,,B,13aI8g@P1=PBGVrMgHlT>gvn25ql,0*3C
"
1622561367.5730321,"$GPGSV,3,2,12,14,19,319,38,21,61,275,43,22,30,211,41,23,10,046,38*78
"
1622561367.6347904,"!AIVDM,1,1,,A,15Dhel001vPB@G`MhUw;Ga8p08@7,0*18
"
1622561367.6939776,"$GPGSV,3,3,12,27,44,143,42,28,09,331,37,32,28,107,37,39,09,114,34*70
"
1622561367.7047963,"$GPGLL,5158.29800,N,00402.66144,E,152927.00,A,A*6E
"
1622561367.8835216,"!AIVDM,1,1,,A,33`gb9@0000Bf=8Mfp2qhF2n00vh,0*6F
"
1622561367.909555,"!AIVDM,1,1,,A,14`W:b0000PC@KBMe`RC5abp08@E,0*04
"
1622561368.1803653,"!AIVDM,1,1,,A,13`ogTUP00PBavrMfPJ>4?vpR8@O,0*0D
"
1622561368.239589,"$GPRMC,152928.00,A,5158.29855,N,00402.66177,E,1.768,14.10,010621,,,A*5E
"
1622561368.282849,"!AIVDM,1,1,,B,13euWD:01PPBeF0Mg7H1VQJp0@@P,0*77
"
1622561368.3348598,"$GPVTG,14.10,T,,M,1.768,N,3.275,K,A*02
"
1622561368.3453944,"!AIVDM,1,1,,B,13aNct0P00PBwHfMfL9f4?vp28@Q,0*1A
"
1622561368.4063048,"$GPGGA,152928.00,5158.29855,N,00402.66177,E,1,10,0.92,0.1,M,45.9,M,,*57
"
1622561368.4695048,"!AIVDM,1,1,,B,33aEQ8hP00PBw:rMfLE>4?vp2@ci,0*14
"
1622561368.4860268,"$GPGSA,A,3,28,27,21,23,32,08,22,10,14,01,,,1.79,0.92,1.54*07
"
1622561368.5032609,"$GPGSV,3,1,12,01,35,268,40,03,03,214,31,08,76,187,42,10,41,057,36*70
"
1622561368.5145833,"!AIVDM,1,1,,A,83aEOd@j2d<d<>=<t1cQ;@2E6@L0,0*74
"
1622561368.5689132,"!AIVDM,1,1,,B,339e`LPP00PBaIhMfOnv4?vpR<dA,0*3D
"
1622561368.5849109,"$GPGSV,3,2,12,14,19,319,38,21,61,275,43,22,30,211,41,23,10,046,40*77
"
1622561368.6390333,"$GPGSV,3,3,12,27,44,143,44,28,09,331,38,32,28,107,36,39,09,114,33*7F
"
1622561368.684813,"!AIVDM,1,1,,A,33AiRH3003PAiI@Mb;m`42>r012A,0*44
"
1622561368.6961772,"$GPGLL,5158.29855,N,00402.66177,E,152928.00,A,A*61
"
1622561368.7642677,"!AIVDM,1,1,,B,13aJIhPP00PBMNPMf8:LIgvp2<3L,0*50
"
1622561368.819087,"!AIVDM,1,1,,A,13aSQ700000BG9LMfmBG4s:r0L:k,0*51
"
1622561368.978801,"!AIVDM,1,1,,A,13e>cJ001M0Bm0bMg7:DaCbn0<>v,0*6E
"
1622561369.0047748,"!AIVDM,1,1,,A,33eP<P0OiCPBgqTMgAv2v2Tj00ri,0*34
"
1622561369.1093283,"!AIVDM,1,1,,A,33`fL=000hPBdjHMf5aT;SBpPQ0@,0*5D
"
1622561369.2394896,"$GPRMC,152929.00,A,5158.29907,N,00402.66205,E,1.728,14.12,010621,,,A*59
"
1622561369.280374,"$GPVTG,14.12,T,,M,1.728,N,3.200,K,A*06
"
1622561369.3359935,"!AIVDM,1,1,,B,13iPca0P0@PBnUrMff:l>wvpRL3w,0*59
"
1622561369.3531277,"$GPGGA,152929.00,5158.29907,N,00402.66205,E,1,10,0.92,0.2,M,45.9,M,,*55
"
1622561369.403585,"!AIVDM,1,1,,B,13`v660Ol2PBo8pMgBI13Q4n08A8,0*7C
"
1622561369.417359,"$GPGSA,A,3,28,27,21,23,32,08,22,10,14,01,,,1.79,0.92,1.54*07
"
1622561369.46937,"!AIVDM,1,1,,B,14S0lB000o0Bi7>Mg?uTHSPt08A;,0*59
"
1622561369.4863567,"$GPGSV,3,1,12,01,35,268,41,03,03,214,32,08,76,187,42,10,41,057,33*77
"
1622561369.4983957,"!AIVDM,1,1,,B,138oBB0000PD4W0Mdd6eB1`r0@A>,0*47
"
1622561369.5715907,"$GPGSV,3,2,12,14,19,319,35,21,61,275,42,22,30,211,41,23,10,046,40*7B
"
1622561369.6387703,"$GPGSV,3,3,12,27,44,143,42,28,09,331,35,32,28,107,38,39,09,114,33*7A
"
1622561369.6861892,"!AIVDM,1,1,,B,13aGDshP00PBnp8Mfh;@0?vr2HAD,0*76
"
1622561369.7026427,"$GPGLL,5158.29907,N,00402.66205,E,152929.00,A,A*60
"
1622561369.7132719,"!AIVDM,1,1,,A,139p:e0000PBgS8Mfvw0okRt00RA,0*07
"
1622561369.7239032,"!AIVDM,1,1,,B,13aBKS@P2CPBdVvMfVOPRwvr25ql,0*72
"
1622561369.779201,"!AIVDM,1,1,,B,14cnKP001n0BD?FMhe3KbqFp0PSg,0*6F
"
1622561369.8585231,"!AIVDM,1,1,,A,13aDoS0P0TPBcR@Mf6Nm1gvvR0SF,0*45
"
1622561369.9648182,"!AIVDM,1,1,,B,13aKWAoP00PBQ2JMegnv4?vr2@AR,0*26
"
1622561370.0197527,"!AIVDM,1,1,,B,13`oeUPP22PBv66Mg3CKwgvrR@AT,0*7E
"
1622561370.0697668,"!AIVDM,1,1,,A,13aDCs0P000BMMLMf:kk:gvrP5ql,0*5F
"
1622561370.1804569,"!AIVDM,1,1,,B,39NSLw5000PBUF4MfkksV`>t0D`b,0*6B
"
1622561370.2458124,"$GPRMC,152930.00,A,5158.29958,N,00402.66235,E,1.767,13.96,010621,,,A*58
"
1622561370.2888393,"!AIVDM,1,1,,B,402E3MAvEPgMMPBlo@MgVLQ02HAc,0*35
"
1622561370.3408592,"$GPVTG,13.96,T,,M,1.767,N,3.272,K,A*03
"
1622561370.3514967,"!AIVDM,1,1,,A,19NSLhDvQEPB`k@MgVnDQCTb05ql,0*02
"
1622561370.4119391,"$GPGGA,152930.00,5158.29958,N,00402.66235,E,1,10,0.92,0.3,M,45.9,M,,*55
"
1622561370.474508,"!AIVDM,1,1,,B,402E3MQvEPgMMPCgs2Md@WG00HAd,0*5C
"
1622561370.4911516,"$GPGSA,A,3,28,27,21,23,32,08,22,10,14,01,,,1.79,0.92,1.54*07
"
1622561370.5018113,"!AIVDM,1,1,,B,13aG7b00000Bv6lMfQ=UlQ@p0HAk,0*47
"
1622561370.5195088,"$GPGSV,3,1,12,01,35,268,41,03,03,214,31,08,76,187,42,10,41,057,37*70
"
1622561370.5740654,"!AIVDM,1,1,,A,13aIhJ@P1IPBw<`Mg0wt7?vt2<7>,0*6B
"
1622561370.590113,"$GPGSV,3,2,12,14,19,319,35,21,61,275,42,22,30,211,37,23,10,046,36*7B
"
1622561370.639487,"!AIVDM,1,1,,A,33aC3NEP000BRmlMfGOP0?vr0DDr,0*77
"
1622561370.6997151,"$GPGSV,3,3,12,27,44,143,42,28,09,331,34,32,28,107,36,39,09,114,33*75
"
1622561370.7164595,"!AIVDM,2,1,4,A,55EJ6@82FP:k<DDs>20Pln0PDi<TpdV222222216@L=E`5N7?LkS4U3H,0*5F
"
1622561370.7270882,"!AIVDM,2,2,4,A,888888888888880,2*20
"
1622561370.7417667,"$GPGLL,5158.29958,N,00402.66235,E,152930.00,A,A*61
"
1622561370.7521725,"!AIVDM,1,1,,B,13`dee5P1>PCI5dMeAQ5=Ovt28As,0*07
"
1622561370.7629051,"!AIVDM,1,1,,B,33Eocf5000PBQ7tMg@Vdi9Fp2DN:,0*33
"
1622561371.1651742,"!AIVDM,1,1,,A,14Qvm`00000CCPrMeMw3PQ:v00T>,0*1D
"
1622561371.2447002,"$GPRMC,152931.00,A,5158.30009,N,00402.66264,E,1.768,13.94,010621,,,A*55
"
1622561371.2881002,"!AIVDM,1,1,,B,13aBL80P0bPBP?4MgBJrggvvR@BA,0*4A
"
1622561371.3411818,"$GPVTG,13.94,T,,M,1.768,N,3.274,K,A*08
"
1622561371.3518841,"!AIVDM,1,1,,A,14RQol502VPB2R`MiHs;O9Fr0L6d,0*18
"
1622561371.411453,"$GPGGA,152931.00,5158.30009,N,00402.66264,E,1,10,0.92,0.3,M,45.9,M,,*55
"
1622561371.4745536,"!AIVDM,1,1,,B,13`eHVP000PBpdJMgLfADFTt0D7U,0*65
"
1622561371.4908931,"!AIVDM,1,1,,A,13`v660Ol2PBo<0MgBqQ618r0<8F,0*15
"
1622561371.5016289,"$GPGSA,A,3,28,27,21,23,32,08,22,10,14,01,,,1.79,0.92,1.54*07
"
1622561371.5142186,"!AIVDM,1,1,,A,13esf>00000Bv9tMfQ8U7Vnv05ql,0*55
"
1622561371.5726745,"!AIVDM,1,1,,A,13c8680P00PBoUpMgMmKIgw00@BH,0*1B
"
1622561371.58908,"$GPGSV,3,1,12,01,35,268,41,03,03,214,30,08,76,187,42,10,41,057,35*73
"
1622561371.6377032,"!AIVDM,1,1,,B,33eP<P0OiCPBgspMgB0C0RVn0000,0*1E
"
1622561371.68935,"!AIVDM,1,1,,B,33`gb9@0000Bf=8Mfp2qVn2v00ri,0*67
"
1622561371.7062907,"$GPGSV,3,2,12,14,19,319,32,21,61,275,42,22,30,211,40,23,10,046,37*7D
"
1622561371.723652,"$GPGSV,3,3,12,27,44,143,43,28,09,331,34,32,28,107,40,39,09,114,34*72
"
1622561371.7400944,"!AIVDM,1,1,,B,13aDof0P10PBPM8Mg6ps0wvv2D;Q,0*19
"
1622561371.7571921,"$GPGLL,5158.30009,N,00402.66264,E,152931.00,A,A*61
"
1622561371.7677972,"!AIVDM,1,1,,B,13`jdOhP000BMN8Mf@6@0?vt0<3w,0*2F
"
1622561371.778311,"!AIVDM,1,1,,B,13aFgOP000PBv4@Mfigocqbv2HBS,0*7F
"
1622561371.8033419,"!AIVDM,1,1,,A,13`jg:w0020C6:dMfAL:3:<vP8BW,0*0F
"
1622561371.8582418,"!AIVDM,1,1,,B,13fK8g@017PBs1nMg:JluCtv05ql,0*07
"
1622561371.8837132,"!AIVDM,1,1,,A,13a5Jn0000PBpa8MgLCG26Pt28Bb,0*07
"
1622561372.2429564,"$GPRMC,152932.00,A,5158.30065,N,00402.66298,E,1.894,13.88,010621,,,A*5E
"
1622561372.294292,"!AIVDM,2,1,5,A,53ku9Th2>EKD=48v220mE<T>2222222222222218@h7=95Oh?AlSm51D,0*2E
"
