1622883867.0524626,"!AIVDM,1,1,,B,33ev>H0Oh:0BA?@MfPS0APnf012A,0*52
"
1622883867.068181,"!AIVDM,1,1,,B,138b>F001F0BSqnMgtJ;Apvn0D>p,0*70
"
1622883867.0786405,"!AIVDM,1,1,,B,33:BN>3Oh?PBKC<MgtBrSrhn00r1,0*2A
"
1622883867.0890577,"!AIVDM,1,1,,B,133stVPP19PBombMgB<`@wvj2<7C,0*5A
"
1622883867.0994134,"!AIVDM,1,1,,B,?02E3M@rfD>PD00,2*1B
"
1622883867.109669,"!AIVDM,1,1,,A,13e>vt400gPBeEHMgFEe6rHj8D@b,0*20
"
1622883867.1309218,"!AIVDM,1,1,,B,139Fnw0001PBgknMfvJHma<n058@,0*4C
"
1622883867.2118907,"!AIVDM,1,1,,A,33Eocf0OhsPBfM6Mg5j@@@<j226h,0*5F
"
1622883867.2757957,"$GPRMC,090427.00,A,5157.43250,N,00402.09724,E,0.031,,050621,,,A*72
"
1622883867.3164237,"$GPVTG,,T,,M,0.031,N,0.057,K,A*23
"
1622883867.3735485,"!AIVDM,1,1,,B,13aC580P010BfLlMfBO73?vjP<35,0*36
"
1622883867.3906755,"$GPGGA,090427.00,5157.43250,N,00402.09724,E,1,08,1.03,7.2,M,45.9,M,,*5B
"
1622883867.439851,"!AIVDM,1,1,,A,13aSQ700000BbBPMfQNMw:hp08?w,0*1E
"
1622883867.4528844,"$GPGSA,A,3,25,29,02,31,04,18,26,20,,,,,1.73,1.03,1.39*09
"
1622883867.5057607,"!AIVDM,1,1,,A,133tj7PP000BN92Mf1e9BwvpR58@,0*63
"
1622883867.5217931,"$GPGSV,3,1,11,02,19,040,41,04,10,331,26,05,04,094,16,12,14,102,*7E
"
1622883867.5730119,"!AIVDM,1,1,,B,?02E3M@rfD>QP00,2*0E
"
1622883867.5858266,"$GPGSV,3,2,11,16,03,283,22,18,19,172,41,20,07,102,23,25,50,105,42*72
"
1622883867.637198,"!AIVDM,1,1,,A,13aDpshP1APBq4pMg?<TlwvlR<<t,0*37
"
1622883867.6889083,"$GPGSV,3,3,11,26,29,288,40,29,85,115,42,31,59,268,46*45
"
1622883867.7050226,"$GPGLL,5157.43250,N,00402.09724,E,090427.00,A,A*69
"
1622883867.715762,"!AIVDM,1,1,,B,34SHkL80000BQ;8Mg@iS;a:p02lQ,0*49
"
1622883867.7308986,"!AIVDM,1,1,,A,13aBN`hP0N0BFW4MfhNca?wbPTqp,0*18
"
1622883867.7417321,"!AIVDM,1,1,,B,13aEQ8hP00PBw<BMfLEv4?vn28@<,0*78
"
1622883867.7768176,"!AIVDM,1,1,,A,139vu<P01S0BdoHMg5<Prhfj058@,0*09
"
1622883867.8821719,"!AIVDM,1,1,,B,39NS`fm0@0PBvb<MfQ3`C;>p0Dtb,0*5E
"
1622883867.9623508,"!AIVDM,1,1,,A,35R0Gl10010AKi8Meul2TP@n0Djb,0*57
"
1622883867.9874518,"!AIVDM,1,1,,B,13aL=>PP00PBGmvMfl>2nOvl28@F,0*3B
"
1622883868.172929,"!AIVDM,1,1,,A,33`gb9@0000BfBnMfpFb6pTp00vh,0*31
"
1622883868.2787845,"$GPRMC,090428.00,A,5157.43248,N,00402.09727,E,0.011,,050621,,,A*75
"
1622883868.3235047,"!AIVDM,1,1,,A,139gq8PP0;PC726Mf>v4Qwvn258@,0*0E
"
1622883868.3753526,"$GPVTG,,T,,M,0.011,N,0.021,K,A*20
"
1622883868.3860035,"!AIVDM,1,1,,A,3342dB001;0BiGDMg?CDGCOp0P00,0*5D
"
1622883868.446566,"$GPGGA,090428.00,5157.43248,N,00402.09727,E,1,09,1.03,7.3,M,45.9,M,,*5E
"
1622883868.5079997,"!AIVDM,1,1,,A,13ku;Q@vA?PBsSdMflt4uCvn0<3w,0*2F
"
1622883868.518936,"!AIVDM,1,1,,B,13aEO<PP1:PBnKhMeu;Jrgvl2@@O,0*7A
"
1622883868.5753188,"!AIVDM,1,1,,A,13aGtpPP00PBMR4Mf8QP0?vp28@U,0*3B
"
1622883868.5887885,"$GPGSA,A,3,25,12,29,02,31,04,18,26,20,,,,1.73,1.03,1.39*0A
"
1622883868.645372,"$GPGSV,3,1,11,02,19,040,41,04,10,331,26,05,04,094,19,12,14,102,23*70
"
1622883868.6995633,"$GPGSV,3,2,11,16,03,283,22,18,19,172,41,20,07,102,24,25,50,105,42*75
"
1622883868.7100751,"!AIVDM,1,1,,A,13aNbtgP00PBGH>MfmMv4?vp2<6=,0*7C
"
1622883868.7251906,"$GPGSV,3,3,11,26,29,288,39,29,85,115,43,31,59,268,46*4A
"
1622883868.7413082,"$GPGLL,5157.43248,N,00402.09727,E,090428.00,A,A*6C
"
1622883868.7520678,"!AIVDM,1,1,,A,133nj8PP00PBNnNMg8G9:gvrR0RR,0*00
"
1622883868.7627482,"!AIVDM,1,1,,B,13aFfQ0P00PBMVPMf8OkmOvn20Sm,0*3F
"
1622883869.025237,"!AIVDM,1,1,,A,139p:e001DPC14DMfT4d3Cvr00Ro,0*73
"
1622883869.0416436,"!AIVDM,1,1,,A,?02E3M@rEcq9P00,2*2E
"
1622883869.1058564,"!AIVDM,1,1,,A,13b8Kr0000PBtCBMfrHIbafl0PRr,0*31
"
1622883869.146828,"!AIVDM,1,1,,B,?02E3M@rEcq9P00,2*2D
"
1622883869.185884,"!AIVDM,1,1,,B,13pwfmP0ic0Bu4hMg2S4u42r058@,0*19
"
1622883869.2805343,"$GPRMC,090429.00,A,5157.43248,N,00402.09725,E,0.022,,050621,,,A*76
"
1622883869.3247135,"!AIVDM,1,1,,B,13aGEV0000PBQ?LMf@aN480rR@A6,0*4D
"
1622883869.3781474,"$GPVTG,,T,,M,0.022,N,0.040,K,A*27
"
1622883869.3913426,"$GPGGA,090429.00,5157.43248,N,00402.09725,E,1,09,0.96,7.3,M,45.9,M,,*50
"
1622883869.4446306,"!AIVDM,1,1,,A,33:BN>3Oh=PBKBrMgtCbibnt0000,0*00
"
1622883869.4561555,"!AIVDM,1,1,,B,139aJBPP00PC3jhMeh3SdOvpRD3w,0*0A
"
1622883869.5105991,"$GPGSA,A,3,25,12,29,02,31,04,18,26,20,,,,1.56,0.96,1.23*0B
"
1622883869.524191,"!AIVDM,1,1,,B,14S0lB00000BgS6MfvwaDq>t00S2,0*48
"
1622883869.5769377,"!AIVDM,1,1,,A,13aGDQ0P00PBGf8MfiCN4?vr2@A=,0*32
"
1622883869.5938668,"$GPGSV,3,1,11,02,19,040,41,04,10,331,26,05,04,094,22,12,14,102,22*79
"
1622883869.6415904,"!AIVDM,1,1,,B,13aG7b00000Bv78MfQ@051>n058@,0*7C
"
1622883869.7013104,"$GPGSV,3,2,11,16,03,283,23,18,19,172,41,20,07,102,23,25,50,105,42*73
"
1622883869.7180505,"!AIVDM,2,1,2,A,5341=D`00000uCGC3H10Dh4ME<0000000000001?<@<B5uR?03hC0S0D,0*47
"
1622883869.7287545,"!AIVDM,2,2,2,A,liDQ0C@00000000,2*35
"
1622883869.7433167,"$GPGSV,3,3,11,26,29,288,36,29,85,115,42,31,59,268,46*44
"
1622883869.7597384,"$GPGLL,5157.43248,N,00402.09725,E,090429.00,A,A*6F
"
1622883869.7702293,"!AIVDM,1,1,,A,13aoiP0PA`0BmFtMgKAlSCJr08AH,0*1A
"
1622883869.801384,"!AIVDM,1,1,,B,33ajAt0P@APAvPdMidB;ra4r0000,0*45
"
1622883869.8817844,"!AIVDM,1,1,,A,137bHJ0w1pPC7RHMfKbL6I`t00R8,0*04
"
1622883870.1222515,"!AIVDM,1,1,,A,13JNv:0P0e0C:aVMesjTd?vt0@AV,0*7C
"
1622883870.2823694,"$GPRMC,090430.00,A,5157.43247,N,00402.09723,E,0.040,,050621,,,A*73
"
1622883870.3268511,"!AIVDM,1,1,,B,402E3MAvERa4MPBlo>MgVLQ02@Ac,0*3E
"
1622883870.3800464,"$GPVTG,,T,,M,0.040,N,0.074,K,A*24
"
1622883870.3907008,"!AIVDM,1,1,,B,13aGu<wP00PBADhMgImf4?vt2HAd,0*2E
"
1622883870.4501467,"$GPGGA,090430.00,5157.43247,N,00402.09723,E,1,09,0.96,7.4,M,45.9,M,,*56
"
1622883870.5134907,"!AIVDM,1,1,,A,13aDqIhP00PBMKfMf:N>4?vtR@Ag,0*2F
"
1622883870.524082,"!AIVDM,1,1,,B,33Eocf0OhtPBfMhMg5w0J@Bp20sP,0*79
"
1622883870.5797985,"$GPGSA,A,3,25,12,29,02,31,04,18,26,20,,,,1.56,0.96,1.23*0B
"
1622883870.5985484,"$GPGSV,3,1,11,02,19,040,41,04,10,331,26,05,04,094,22,12,14,102,21*7A
"
1622883870.6436028,"!AIVDM,1,1,,A,13aJHWUP00PBSf@Mf0sMD?vt2000,0*2C
"
1622883870.6948555,"!AIVDM,1,1,,A,13aI8gEP00PBPDVMgC6f4?vt21IN,0*22
"
1622883870.711481,"!AIVDM,1,1,,B,134;7F00is0BALhMhvNKjaHp0<=A,0*41
"
1622883870.72835,"$GPGSV,3,2,11,16,03,283,22,18,19,172,41,20,07,102,23,25,50,105,42*72
"
1622883870.7451923,"$GPGSV,3,3,11,26,29,288,38,29,85,115,42,31,59,268,46*4A
"
1622883870.7559793,"$GPGLL,5157.43247,N,00402.09723,E,090430.00,A,A*6E
"
1622883870.770308,"!AIVDM,1,1,,A,33ev>H00080BA?@MfPS0<Ppn0000,0*6D
"
1622883870.7810695,"!AIVDM,1,1,,A,33aBNS5P000BMe4Mf7gP0?vrPDJr,0*1F
"
1622883871.1089518,"!AIVDM,1,1,,B,13aDppOP00PBPvTMgAkC6Ovt28B;,0*36
"
1622883871.2145438,"!AIVDM,1,1,,A,14Qvm`00000BgsbMfv>sra8v0<B=,0*33
"
1622883871.28721,"$GPRMC,090431.00,A,5157.43248,N,00402.09720,E,0.033,,050621,,,A*7A
"
1622883871.3273277,"$GPVTG,,T,,M,0.033,N,0.060,K,A*25
"
1622883871.388793,"$GPGGA,090431.00,5157.43248,N,00402.09720,E,1,09,0.96,7.5,M,45.9,M,,*5A
"
1622883871.4513843,"$GPGSA,A,3,25,12,29,02,31,04,18,26,20,,,,1.56,0.96,1.23*0B
"
1622883871.464817,"!AIVDM,1,1,,B,137O9b0OhvPBe>dMfqM0P0Lv0@BF,0*41
"
1622883871.5185106,"!AIVDM,1,1,,A,13`fL=0000PBGhlMfk<f22btPhBH,0*3C
"
1622883871.5342555,"$GPGSV,3,1,11,02,19,040,40,04,10,331,27,05,04,094,24,12,14,102,22*7F
"
1622883871.5876262,"$GPGSV,3,2,11,16,03,283,22,18,19,172,41,20,07,102,23,25,50,105,42*72
"
1622883871.6515534,"$GPGSV,3,3,11,26,29,288,37,29,85,115,42,31,59,268,46*45
"
1622883871.701652,"!AIVDM,1,1,,A,34SBtL50000BCmRMfRibini00m1r,0*31
"
1622883871.7183216,"$GPGLL,5157.43248,N,00402.09720,E,090431.00,A,A*63
"
1622883871.7288952,"!AIVDM,1,1,,A,33aDoI5P00PBMnTMf3lt9wvv2DNr,0*21
"
1622883871.7394166,"!AIVDM,1,1,,B,14RvgN00000BVAHMfLEb584t00Ru,0*2A
"
1622883871.9050756,"!AIVDM,1,1,,B,338@6N5000PBWJDMfm3Vc`@v0000,0*7D
"
1622883871.9601078,"!AIVDM,1,1,,B,18HwF:0w1CPBNI@MgstTSSVp00Rp,0*72
"
1622883872.015367,"!AIVDM,1,1,,B,13aC5Q0P00PBFj<MffEVdgvvR8Be,0*13
"
1622883872.095716,"!AIVDM,1,1,,A,13aBNA@P00PBP=DMg6Q@0?w028Bh,0*46
"
1622883872.2821298,"$GPRMC,090432.00,A,5157.43249,N,00402.09719,E,0.017,,050621,,,A*74
"
1622883872.3228068,"$GPVTG,,T,,M,0.017,N,0.031,K,A*27
"
1622883872.3798366,"!AIVDM,1,1,,A,138nCj002G0Bi=hMgRWD?3Hp058@,0*42
"
1622883872.396892,"$GPGGA,090432.00,5157.43249,N,00402.09719,E,1,09,0.96,7.5,M,45.9,M,,*52
"
1622883872.4467041,"!AIVDM,1,1,,B,13`hrChP1APBK60MgGa;Bgvv0U8@,0*06
"
1622883872.4603965,"$GPGSA,A,3,25,12,29,02,31,04,18,26,20,,,,1.56,0.96,1.23*0B
"
1622883872.5129685,"!AIVDM,1,1,,A,13esf>00000Bv>DMfPqcBVo00D<N,0*30
"
1622883872.5235403,"!AIVDM,1,1,,A,134:of80000Bn6`MfwSM;CT@0<<P,0*2F
"
1622883872.5874813,"$GPGSV,3,1,11,02,19,040,40,04,11,331,28,05,04,094,26,12,14,102,22*73
"
1622883872.6001146,"$GPGSV,3,2,11,16,03,283,,18,19,172,41,20,07,102,23,25,50,105,42*72
"
1622883872.646235,"$GPGSV,3,3,11,26,29,288,37,29,85,115,42,31,59,268,46*45
"
1622883872.6957653,"$GPGLL,5157.43249,N,00402.09719,E,090432.00,A,A*6B
"
1622883872.7067606,"!AIVDM,1,1,,A,33`kDom000PBoehMgMO68a@r0000,0*5E
"
1622883872.8389766,"!AIVDM,1,1,,B,13`hqgPP00PB`D>Mfm3BLgw0R8C<,0*7F
"
1622883872.8691237,"!AIVDM,1,1,,A,13`i@jPP0wPBfTFMg;tpp?w0R0S=,0*37
"
1622883872.9596663,"!AIVDM,2,1,6,B,54S0lB02AV35K8MSJ20H4U90h5V1R2222222220l1P=754OP0>SS4U3H,0*2D
"
1622883872.9702172,"!AIVDM,2,2,6,B,20DPSmD`53mhAi@,2*76
"
1622883872.999259,"!AIVDM,1,1,,A,13aGsl@P1;PBUl>MfnPS<gw0R<80,0*2E
"
1622883873.0542123,"!AIVDM,1,1,,A,19NSPSP00dPC;2RMer>m142v08CD,0*0B
"
1622883873.079427,"!AIVDM,1,1,,A,13aI:I3001PC016Mjra@CCO20D>a,0*7B
"
1622883873.1096559,"!AIVDM,1,1,,A,13aGsuPP00PBMh4Mf?A>4?w200Sc,0*12
"
1622883873.1345744,"!AIVDM,1,1,,B,33:BN>3Oh=PBKB8MgtC:rbu200jP,0*6D
"
1622883873.1849012,"!AIVDM,1,1,,A,133n<`PP00PBNKdMf8Bf4?w2R<4r,0*07
"
1622883873.2149746,"!AIVDM,1,1,,B,13aGCnh01<PBjU6Mg<FTbCg0P0SF,0*65
"
1622883873.2794163,"$GPRMC,090433.00,A,5157.43249,N,00402.09724,E,0.010,,050621,,,A*7C
"
1622883873.3202016,"$GPVTG,,T,,M,0.010,N,0.019,K,A*2A
"
1622883873.3800378,"$GPGGA,090433.00,5157.43249,N,00402.09724,E,1,09,1.03,7.6,M,45.9,M,,*53
"
1622883873.4444304,"$GPGSA,A,3,25,12,29,02,31,04,18,26,20,,,,1.73,1.03,1.39*0A
"
1622883873.5179303,"$GPGSV,3,1,11,02,19,040,40,04,11,331,27,05,05,093,26,12,14,102,23*7B
"
1622883873.5293968,"!AIVDM,1,1,,A,3342dB0Oi<0BiL>Mg?8lHSQp0Q7i,0*01
"
1622883873.5795074,"$GPGSV,3,2,11,16,03,283,,18,19,172,40,20,07,102,22,25,50,105,42*72
"
1622883873.6434708,"$GPGSV,3,3,11,26,29,288,39,29,85,115,42,31,59,268,46*4B
"
1622883873.6931195,"!AIVDM,1,1,,A,13Eocf0OhvPBfNLMg6<0P0Dv20Rv,0*78
"
1622883873.7042494,"$GPGLL,5157.43249,N,00402.09724,E,090433.00,A,A*64
"
1622883873.8125918,"!AIVDM,2,1,7,B,53aENQD000010KS7G@055D60T8E8T4000000001@5h833vDc06TSm51D,0*2B
"
1622883873.8231916,"!AIVDM,2,2,7,B,Q0C@00000000000,2*42
"
1622883873.8338065,"!AIVDM,1,1,,A,13aoiP001N0BmLnMgK3TSCG208Ci,0*10
"
1622883873.9620068,"!AIVDM,1,1,,B,33ev>H00080BA?@MfPS0<Ppr00u@,0*47
"
1622883874.042381,"!AIVDM,1,1,,B,13aC4b@P000BM0tMf=HaFOw4R58@,0*52
"
1622883874.1477084,"!AIVDM,1,1,,A,13:hoR?000PBWATMfMU:2`3000Sh,0*77
"
1622883874.2278216,"!AIVDM,1,1,,B,402Dw?1vERa4Q0Ad46MaM:O02<<0,0*7A
"
1622883874.283502,"$GPRMC,090434.00,A,5157.43249,N,00402.09724,E,0.022,,050621,,,A*7A
"
1622883874.324929,"$GPVTG,,T,,M,0.022,N,0.040,K,A*27
"
1622883874.3857062,"!AIVDM,2,1,3,A,53aIhG4000010COC7<1<Tp<E8t0000000000001?;p:46t0Ht54Sm51D,0*00
"
1622883874.4469266,"!AIVDM,2,2,3,A,Q0C@00000000000,2*45
"
1622883874.461077,"$GPGGA,090434.00,5157.43249,N,00402.09724,E,1,10,1.03,7.7,M,45.9,M,,*5D
"
1622883874.513408,"!AIVDM,1,1,,B,83aENQ@j2d<dtMfLN13PQ?be7vP0,0*76
"
1622883874.5275629,"$GPGSA,A,3,25,12,29,02,31,04,18,26,20,05,,,1.73,1.03,1.39*0F
"
1622883874.5839076,"$GPGSV,3,1,11,02,19,040,40,04,11,331,27,05,05,093,27,12,14,102,25*7C
"
1622883874.649794,"$GPGSV,3,2,11,16,03,283,,18,19,172,40,20,07,102,22,25,50,105,42*72
"
1622883874.6972036,"$GPGSV,3,3,11,26,29,288,37,29,85,115,42,31,59,268,46*45
"
1622883874.7137907,"!AIVDM,1,1,,A,13aEQ=@P0aPB`QVMfu8Km?w42D7w,0*52
"
1622883874.7244709,"$GPGLL,5157.43249,N,00402.09724,E,090434.00,A,A*63
"
1622883874.7363832,"!AIVDM,1,1,,A,13lo@t0000PBtcLMfqBVEQE00<<P,0*15
"
1622883874.8656614,"!AIVDM,1,1,,A,33`gb9@0000BfBhMfpGKBpW40000,0*32
"
1622883874.946245,"!AIVDM,1,1,,A,133kjEPP00PBN7vMffhaO?w2R@DK,0*22
"
1622883875.1613262,"!AIVDM,1,1,,B,333rBFUP00PBVo:Mf6eaAww6RE;b,0*54
"
1622883875.2829041,"$GPRMC,090435.00,A,5157.43247,N,00402.09724,E,0.015,,050621,,,A*71
"
1622883875.325544,"!AIVDM,1,1,,A,13aFfo0P0vPBTnhMevAqngw4R0Rn,0*16
"
1622883875.3786519,"$GPVTG,,T,,M,0.015,N,0.028,K,A*2D
"
1622883875.3919835,"$GPGGA,090435.00,5157.43247,N,00402.09724,E,1,10,1.03,7.8,M,45.9,M,,*5D
"
1622883875.445402,"$GPGSA,A,3,25,12,29,02,31,04,18,26,20,05,,,1.73,1.03,1.39*0F
"
1622883875.459278,"!AIVDM,1,1,,A,13aO@WU01<PBoLTMg1p<>Ig6R8Dd,0*2B
"
1622883875.5165517,"!AIVDM,2,1,8,B,53aEOED000010CC?GL1@p:118T@D00000000001I90>74uR`p04Sm51D,0*15
"
1622883875.5784845,"!AIVDM,2,2,8,B,Q0CH1EDSl0B0EQ@,2*6C
"
1622883875.5909503,"$GPGSV,3,1,11,02,19,040,41,04,11,331,27,05,05,093,27,12,14,102,25*7D
"
1622883875.647404,"$GPGSV,3,2,11,16,03,283,,18,19,172,40,20,07,102,22,25,50,105,42*72
"
1622883875.694603,"!AIVDM,1,1,,B,13aDq=0000PBMnTMf4BDvHU6P@Dj,0*51
"
1622883875.7112546,"$GPGSV,3,3,11,26,29,288,40,29,85,115,42,31,59,268,46*45
"
1622883875.7218716,"!AIVDM,1,1,,B,13aoiP001N0BmN2MgK0lTCG608Dl,0*77
"
1622883875.7339401,"$GPGLL,5157.43247,N,00402.09724,E,090435.00,A,A*6C
"
1622883875.803111,"!AIVDM,1,1,,B,83aEOE@j2d<dteMuLicPq?bU0100,0*63
"
1622883875.958678,"!AIVDM,1,1,,A,33:BN>3Oh=PBKAnMgtDc<;38014A,0*70
"
1622883876.2812195,"$GPRMC,090436.00,A,5157.43245,N,00402.09721,E,0.012,,050621,,,A*72
"
1622883876.3258426,"!AIVDM,1,1,,A,340UvN0P1GPC=PFMf3vDcgw6R34S,0*3B
"
1622883876.3773975,"$GPVTG,,T,,M,0.012,N,0.022,K,A*20
"
1622883876.3877203,"!AIVDM,1,1,,A,33ev>H00070BA?@MfPS0:0pv013A,0*6F
"
1622883876.4481142,"$GPGGA,090436.00,5157.43245,N,00402.09721,E,1,10,1.03,7.9,M,45.9,M,,*58
"
1622883876.5119913,"!AIVDM,1,1,,A,35BQiH5000PBDrLMfb9AN1;:0EEb,0*62
"
1622883876.525817,"$GPGSA,A,3,25,12,29,02,31,04,18,26,20,05,,,1.73,1.03,1.39*0F
"
1622883876.5817857,"$GPGSV,3,1,11,02,19,040,41,04,11,331,28,05,05,093,27,12,14,102,25*72
"
1622883876.6485581,"$GPGSV,3,2,11,16,03,283,,18,19,172,40,20,07,102,22,25,50,105,42*72
"
1622883876.6945817,"!AIVDM,1,1,,B,139vu<PPAS0BdsrMg66@ohS4058@,0*53
"
1622883876.7113318,"$GPGSV,3,3,11,26,29,288,38,29,85,115,42,31,59,268,46*4A
"
1622883876.7219713,"$GPGLL,5157.43245,N,00402.09721,E,090436.00,A,A*68
"
1622883876.7342086,"!AIVDM,1,1,,B,33Eocf000vPBfO:Mg6I0QhE4226h,0*3E
"
1622883876.8428822,"!AIVDM,1,1,,A,139eag0P12PBV@TMg4IcDww82@ER,0*60
"
1622883876.9037304,"!AIVDM,2,1,4,A,53ev>H02?N47TP;CS;IH:1<<PDh@F2222222220M1@B644000;TSm51D,0*0D
"
1622883876.9143276,"!AIVDM,2,2,4,A,Q0CH88888888880,2*4A
"
1622883876.9987214,"!AIVDM,1,1,,A,133stVPP1<PBohVMgAO`B?w620S<,0*1D
"
1622883877.2144544,"!AIVDM,1,1,,A,14SHkL80000BQ;@Mg@jC;a;:0<>4,0*51
"
1622883877.282086,"$GPRMC,090437.00,A,5157.43241,N,00402.09720,E,0.020,,050621,,,A*77
"
1622883877.3261342,"!AIVDM,1,1,,B,3342dB001<0BiO:Mg?2DIkSb0P00,0*76
"
1622883877.3787067,"$GPVTG,,T,,M,0.020,N,0.038,K,A*2A
"
1622883877.392172,"$GPGGA,090437.00,5157.43241,N,00402.09720,E,1,10,1.03,8.1,M,45.9,M,,*5B
"
1622883877.4458365,"!AIVDM,1,1,,A,1341=DPP00PBb1tMfPRf4?w828En,0*47
"
1622883877.4642646,"!AIVDM,2,1,9,B,54a1UB42=Pw<?Ic;3C@t<<U@4r1<eV2222222216B`M6D5K:0;TSm51D,0*01
"
1622883877.5123205,"!AIVDM,2,2,9,B,Q0CH88888888880,2*44
"
1622883877.5229568,"$GPGSA,A,3,25,12,29,02,31,04,18,26,20,05,,,1.73,1.03,1.39*0F
"
1622883877.5798974,"!AIVDM,1,1,,A,13aGEMDP00PBuGHMfnb00?w:28Eq,0*1D
"
1622883877.5956824,"$GPGSV,3,1,11,02,19,040,40,04,11,331,29,05,05,093,27,12,14,102,25*72
"
1622883877.6436806,"!AIVDM,1,1,,B,133tj7PP000BN92Mf1eIEOw<R<75,0*11
"
1622883877.7033103,"$GPGSV,3,2,11,16,03,283,,18,19,172,40,20,07,102,22,25,50,105,42*72
"
1622883877.7139182,"!AIVDM,1,1,,A,13aEQ8hP00PBw;lMfLFf4?w:20SI,0*7A
"
1622883877.7288797,"!AIVDM,1,1,,A,13aoiP001N0BmO<MgJv4T3I:0@Ev,0*75
"
1622883877.739511,"$GPGSV,3,3,11,26,29,288,40,29,85,115,42,31,59,268,46*45
"
1622883877.7542021,"!AIVDM,1,1,,A,43aK`NivERa4VPBt8FMoDi700PS:,0*37
"
1622883877.770755,"$GPGLL,5157.43241,N,00402.09720,E,090437.00,A,A*6C
"
1622883877.7813447,"!AIVDM,1,1,,B,133nj8PP00PBNnRMg8Fq?Ow<R0Rk,0*0D
"
1622883877.7960067,"!AIVDM,1,1,,B,13aBN`hP0O0BFRtMfh`;hgv6PhF1,0*67
"
1622883877.8067362,"!AIVDM,1,1,,A,138b>F001H0BSe2Mgth;Bpw<0@F3,0*78
"
1622883877.879092,"!AIVDM,1,1,,A,13aL=>PP00PBGmvMfl<Rvgw82HF9,0*36
"
1622883878.014403,"!AIVDM,1,1,,B,13e>vt400gPBeBTMgFn=3rG880Rp,0*67
"
1622883878.069772,"!AIVDM,1,1,,B,13aDpshP1BPBq>FMg>dDpgw8R0RU,0*58
"
1622883878.1499488,"!AIVDM,1,1,,B,33`gb9@0000BfBhMfpGcMpW<00uh,0*03
"
1622883878.2826648,"$GPRMC,090438.00,A,5157.43238,N,00402.09718,E,0.023,,050621,,,A*7E
"
1622883878.3233683,"$GPVTG,,T,,M,0.023,N,0.043,K,A*25
"
1622883878.379659,"!AIVDM,1,1,,B,13aGtpPP00PBMRFMf8Sh0?w<2@FH,0*5E
"
1622883878.3966255,"$GPGGA,090438.00,5157.43238,N,00402.09718,E,1,10,1.03,8.2,M,45.9,M,,*52
"
1622883878.4465108,"!AIVDM,1,1,,B,138nCj002D0BiI`MgRCT?3K408FK,0*05
"
1622883878.460532,"$GPGSA,A,3,25,12,29,02,31,04,18,26,20,05,,,1.73,1.03,1.39*0F
"
1622883878.5210598,"$GPGSV,3,1,11,02,19,040,41,04,11,331,28,05,05,093,27,12,14,102,24*73
"
1622883878.5318065,"!AIVDM,1,1,,B,33:BN>3Oh<PBKADMgtGsEc7>0000,0*1C
"
1622883878.582536,"$GPGSV,3,2,11,16,03,283,,18,19,172,40,20,07,102,22,25,50,105,43*73
"
1622883878.6463192,"$GPGSV,3,3,11,26,29,288,39,29,85,115,42,31,59,268,46*4B
"
1622883878.696405,"!AIVDM,1,1,,B,83aEQ=@j33b0G16i00000000000,2*05
"
1622883878.7069662,"$GPGLL,5157.43238,N,00402.09718,E,090438.00,A,A*66
"
1622883878.7596965,"!AIVDM,1,1,,B,13aSQ700000BbBVMfQMuw:i>0<?9,0*25
"
1622883878.8147757,"!AIVDM,1,1,,A,13aFfQ0P00PBMVVMf8Ol3ww:2HFd,0*6A
"
1622883878.8398967,"!AIVDM,1,1,,A,14`Uvg@1As0BeSLMm0vR@ik:00Rv,0*24
"
1622883878.9199853,"!AIVDM,1,1,,B,13ku;Q@vi?PBsedMflI4tCu<0<3w,0*5F
"
1622883879.0413902,"!AIVDM,2,1,5,A,53`etqp000010OCO301<Dp@v0hTpE8000000001?=06:2twj?04Sm51D,0*38
"
1622883879.0520887,"!AIVDM,2,2,5,A,Q0CH5hTSiBp5d00,2*2B
"
1622883879.0700743,"!AIVDM,2,1,1,B,540UvDD00000uC?W3L0<tmE>380000000000001I;p?:4uOio2TSm51D,0*57
"
1622883879.0807548,"!AIVDM,2,2,1,B,Q0CH1EDSl0B0EQ@,2*65
"
1622883879.0953412,"!AIVDM,2,1,6,A,55BQiH42=RT<Q1<:220m<>0l58Tp622222222218JiJDD5R:OEDSm51D,0*65
"
1622883879.1059148,"!AIVDM,2,2,6,A,Q0CKCS4U3H88880,2*41
"
1622883879.1723666,"!AIVDM,2,1,7,A,59NSPS`2EtU4CE8wP00lDp@DhDEJ118u=0D=@01II@hDH5RW?SCS4U3@,0*66
"
1622883879.182922,"!AIVDM,2,2,7,A,000000000000000,2*23
"
1622883879.2786524,"$GPRMC,090439.00,A,5157.43236,N,00402.09714,E,0.024,,050621,,,A*7A
"
1622883879.332044,"!AIVDM,2,1,8,A,54Qvm`02AAKiK8M?>20H4U90h5Vo;N222222220l1@J575IR0=4Sm51D,0*16
"
1622883879.3769724,"!AIVDM,2,2,8,A,Q0CH20DPSmDU5Ah,2*53
"
1622883879.3875601,"$GPVTG,,T,,M,0.024,N,0.045,K,A*24
"
1622883879.4425335,"!AIVDM,1,1,,B,139p:e001EPC0rrMfT`t23u>00RI,0*5C
"
1622883879.4595888,"$GPGGA,090439.00,5157.43236,N,00402.09714,E,1,10,1.03,8.3,M,45.9,M,,*50
"
1622883879.514957,"!AIVDM,2,1,2,B,533onOT00000uB3?SO<lU=<uE8V222222222221?=h0665PhB021CQ4R,0*27
"
1622883879.5749996,"!AIVDM,2,2,2,B,BjA3hC@P@j58880,2*63
"
1622883879.5863333,"$GPGSA,A,3,25,12,29,02,31,04,18,26,20,05,,,1.73,1.03,1.39*0F
"
1622883879.6457582,"$GPGSV,3,1,11,02,19,040,40,04,11,331,28,05,05,093,26,12,14,102,24*73
"
1622883879.7000587,"$GPGSV,3,2,11,16,03,283,,18,19,172,40,20,07,102,22,25,50,105,43*73
"
1622883879.7105963,"!AIVDM,1,1,,B,13e>cJ00000Btj6Mfpt116q<08G7,0*23
"
1622883879.7255502,"$GPGSV,3,3,11,26,29,288,38,29,85,115,42,31,59,268,46*4A
"
1622883879.7425587,"!AIVDM,2,1,3,B,53`h7`p000010GO;C004qALE90Dp00000000001J?P;:8uL=600DP@00,0*36
"
1622883879.7589571,"!AIVDM,2,2,3,B,000000000000000,2*24
"
1622883879.7697778,"$GPGLL,5157.43236,N,00402.09714,E,090439.00,A,A*65
"
1622883879.7841592,"!AIVDM,1,1,,B,840UvD@j2d=dL=L<d29Q3gbP38t0,0*4D
"
1622883879.7947302,"!AIVDM,1,1,,B,833onOPj2d<dteLeuB9Pq?a@01L0,0*13
"
1622883879.8093076,"!AIVDM,1,1,,B,13aNbtgP00PBGH@MfmNN4?w>2@G?,0*7A
"
1622883879.8198988,"!AIVDM,1,1,,B,13JNv:0P0e0C:fPMesOTtOw@08GA,0*67
"
1622883879.830441,"!AIVDM,1,1,,A,83`etqhj2d<dtv<<dR9Pq?aE00L0,0*6A
"
1622883879.85569,"!AIVDM,1,1,,B,137bHJ01ArPC7E4MfLRL59a@0@GC,0*37
"
1622883879.8806093,"!AIVDM,1,1,,A,13:SWp301oPAi3`MiVi9PGS@058@,0*47
"
1622883879.9609609,"!AIVDM,1,1,,A,33ajAt0P@APAvNjMidHcr`w>0000,0*0A
"
1622883879.986091,"!AIVDM,1,1,,B,13aGDQ0P000BGf4Mfi@f4?w>2@GH,0*48
"
1622883880.0159554,"!AIVDM,1,1,,B,13aKWAoP00PBQ2JMegjf4?w>20RL,0*02
"
1622883880.0409973,"!AIVDM,1,1,,B,33aI9E5P00PBo7`MfU4DQgw<RDpJ,0*61
"
1622883880.282506,"$GPRMC,090440.00,A,5157.43235,N,00402.09715,E,0.022,,050621,,,A*70
"
1622883880.3269238,"!AIVDM,1,1,,A,402E3MAvERa4WPBlo>MgVLQ02HGR,0*18
"
1622883880.3799586,"$GPVTG,,T,,M,0.022,N,0.041,K,A*26
"
1622883880.390594,"!AIVDM,1,1,,A,34a1UB50000BSCfMfs1t801B0ECb,0*55
"
1622883880.4502904,"$GPGGA,090440.00,5157.43235,N,00402.09715,E,1,10,0.96,8.4,M,45.9,M,,*56
"
1622883880.51396,"!AIVDM,1,1,,B,83`h7`hj2d<dtv<=d2`iGgbP01L0,0*4E
"
1622883880.524549,"!AIVDM,1,1,,A,134;7F01Qs0BA=dMhw:cj9I<08GW,0*26
"
1622883880.5797553,"$GPGSA,A,3,25,12,29,02,31,04,18,26,20,05,,,1.60,0.96,1.29*01
"
1622883880.5991352,"$GPGSV,3,1,11,02,19,040,40,04,11,331,28,05,05,093,23,12,14,102,25*77
"
1622883880.643928,"!AIVDM,1,1,,B,13aDqIhP00PBMKdMf:NN4?w@R58@,0*40
"
1622883880.6958222,"!AIVDM,1,1,,B,33ev>H00060BA?@MfPS02Pq60000,0*37
"
1622883880.712235,"$GPGSV,3,2,11,16,03,283,,18,19,172,40,20,07,102,23,25,50,105,43*72
"
1622883880.7294626,"$GPGSV,3,3,11,26,29,288,40,29,85,115,41,31,59,268,45*45
"
1622883880.740282,"!AIVDM,1,1,,A,13aKUh@P18PBPe2MeqRjagw@2<7E,0*13
"
1622883880.7547367,"$GPGLL,5157.43235,N,00402.09715,E,090440.00,A,A*69
"
1622883880.7658193,"!AIVDM,1,1,,A,13aGEV0000PBQ?DMf@bN481@R@Gm,0*2B
"
1622883880.949818,"!AIVDM,1,1,,B,43aK`NivERa4aPBt8FMoDi700hGt,0*61
"
1622883881.0550566,"!AIVDM,1,1,,A,33`dVGEP020BQA:Mfihv4?w@2000,0*1E
"
1622883881.079996,"!AIVDM,1,1,,B,13aI8gEP00PBPDNMgC7>4?w@22tG,0*62
"
1622883881.1353033,"!AIVDM,1,1,,A,13aC5Q0P00PBFj<MffEVdgw@R58@,0*75
"
1622883881.2833602,"$GPRMC,090441.00,A,5157.43236,N,00402.09715,E,0.034,,050621,,,A*75
"
1622883881.3277524,"!AIVDM,1,1,,A,333onOUP00PBP=8Mg5maE?wBRDcr,0*42
"
1622883881.3808289,"$GPVTG,,T,,M,0.034,N,0.064,K,A*26
"
1622883881.3915503,"!AIVDM,1,1,,A,13aBKS@P00PBpTFMgM8M<?w@2@H8,0*5B
"
1622883881.451419,"$GPGGA,090441.00,5157.43236,N,00402.09715,E,1,10,0.96,8.5,M,45.9,M,,*55
"
1622883881.5143614,"!AIVDM,1,1,,B,13`oeUPP00PC5wvMf7JN4?wBR8H7,0*0C
"
1622883881.5248442,"!AIVDM,1,1,,B,13aJHWUP00PBSf@Mf0sMD?w@2000,0*1A
"
1622883881.580751,"$GPGSA,A,3,25,12,29,02,31,04,18,26,20,05,,,1.60,0.96,1.29*01
"
1622883881.599783,"$GPGSV,3,1,11,02,19,040,40,04,11,331,28,05,05,093,23,12,14,102,24*76
"
1622883881.6497662,"$GPGSV,3,2,11,16,03,283,,18,19,172,40,20,07,102,23,25,50,105,43*72
"
1622883881.6972542,"!AIVDM,1,1,,A,33Eocf000w0BfPDMg6fhS@E>20jP,0*0C
"
1622883881.7134814,"$GPGSV,3,3,11,26,29,288,40,29,85,115,42,31,59,268,46*45
"
1622883881.7240558,"!AIVDM,1,1,,A,137O9b0OhvPBe@BMfr<0K0QB08HF,0*28
"
1622883881.7391238,"$GPGLL,5157.43236,N,00402.09715,E,090441.00,A,A*6B
"
1622883881.7498817,"!AIVDM,1,1,,A,13aoiP001N0BmTrMgJelSSGB058@,0*44
"
1622883881.764211,"!AIVDM,1,1,,A,339eg`PP1WPC3ghMfJ4<4Ov01S;Q,0*68
"
1622883881.7747412,"!AIVDM,1,1,,A,14RvgN00000BVANMfLEJ585@0HHI,0*6C
"
1622883881.8555408,"!AIVDM,1,1,,A,13aJI:@P02PBl74MfnOe:OwB2L61,0*45
"
1622883881.9356773,"!AIVDM,1,1,,B,13`i@jPP0vPBfN`Mg;QpmwwBR<7L,0*12
"
1622883881.9606647,"!AIVDM,1,1,,B,39NWvhU000PBP:nMer@@5j;>0000,0*5B
"
1622883881.9770472,"!AIVDM,1,1,,B,?02E3MA:wADPD00,2*3C
"
1622883882.082512,"!AIVDM,1,1,,A,?02E3MA:wADPD00,2*3F
"
1622883882.1461644,"!AIVDM,1,1,,A,13`hrChP1APBJsDMgGsKBwwB0t7a,0*7D
"
1622883882.1762226,"!AIVDM,1,1,,A,18HwF:0viCPBNU>MgsNlRkW<058@,0*63
"
1622883882.2840276,"$GPRMC,090442.00,A,5157.43237,N,00402.09712,E,0.027,,050621,,,A*72
"
1622883882.3285277,"!AIVDM,1,1,,B,134:of80000Bn66MfwQM;CTT0HHe,0*59
"
1622883882.3816516,"$GPVTG,,T,,M,0.027,N,0.050,K,A*23
"
1622883882.3949258,"$GPGGA,090442.00,5157.43237,N,00402.09712,E,1,10,0.96,8.5,M,45.9,M,,*50
"
1622883882.4472396,"$GPGSA,A,3,25,12,29,02,31,04,18,26,20,05,,,1.60,0.96,1.29*01
"
1622883882.461566,"!AIVDM,1,1,,B,14Qvm`00000BgsbMfv?cra9F08Hl,0*4F
"
1622883882.5185404,"$GPGSV,3,1,11,02,19,040,40,04,11,331,29,05,05,093,20,12,14,102,24*74
"
1622883882.58153,"!AIVDM,1,1,,B,13aBNA@P00PBP=`Mg6Q00?wD2@Hn,0*11
"
1622883882.5921245,"!AIVDM,1,1,,B,133n<`PP00PBNKfMf8BN4?wDR<4m,0*47
"
1622883882.6513822,"$GPGSV,3,2,11,16,03,283,,18,19,172,40,20,07,102,23,25,50,105,43*72
"
1622883882.6980214,"$GPGSV,3,3,11,26,29,288,40,29,85,115,42,31,59,268,45*46
"
1622883882.7086232,"!AIVDM,1,1,,A,?02E3MA:wADQP00,2*2A
"
1622883882.7227225,"$GPGLL,5157.43237,N,00402.09712,E,090442.00,A,A*6E
"
1622883882.733374,"!AIVDM,1,1,,B,?02E3MA:wADQP00,2*29
"
1622883882.9467373,"!AIVDM,1,1,,A,13`hqgPP00PB`D>Mfm3BLgwDR<3w,0*37
"
1622883882.9766989,"!AIVDM,1,1,,B,13esf>00000Bv;lMfPqcBVoD00RU,0*6B
"
1622883883.0018456,"!AIVDM,1,1,,B,19NSPSP00dPC;7PMeqsTwD3B08I9,0*0C
"
1622883883.051726,"!AIVDM,1,1,,A,13aC4b@P000BM10Mf=HaEOwFR@I;,0*1A
"
1622883883.1320355,"!AIVDM,1,1,,A,13c8680P01PBoVNMgMp<s?wF08I>,0*5C
"
1622883883.2121983,"!AIVDM,1,1,,B,13aGEd0P1CPC1i4MfeQU6?wF2@IA,0*45
"
1622883883.2860146,"$GPRMC,090443.00,A,5157.43239,N,00402.09710,E,0.015,,050621,,,A*7E
"
1622883883.3305237,"!AIVDM,1,1,,A,33:BN>3Oh=PBK@hMgtJ;f@1F00p@,0*38
"
1622883883.3835216,"$GPVTG,,T,,M,0.015,N,0.027,K,A*22
"
1622883883.3941185,"!AIVDM,1,1,,B,33aEOEEP00PBQ?6Mfj45C?v62DS:,0*37
"
1622883883.4530203,"$GPGGA,090443.00,5157.43239,N,00402.09710,E,1,10,0.93,8.6,M,45.9,M,,*5B
"
1622883883.5173655,"!AIVDM,1,1,,B,13Eocf0OhwPBfPrMg6ohTPEB20SC,0*34
"
1622883883.531384,"$GPGSA,A,3,25,12,29,02,31,04,18,26,20,05,,,1.53,0.93,1.21*0C
"
1622883883.5831935,"!AIVDM,1,1,,A,33ev>H00050BA?@MfPS=jPs>00vh,0*76
"
1622883883.5993266,"$GPGSV,3,1,11,02,19,040,40,04,11,331,28,05,05,093,20,12,14,102,24*75
"
1622883883.647569,"!AIVDM,1,1,,B,13aGsl@P1:PBV04Mfn`S=gwFR0Sb,0*0B
"
1622883883.707605,"$GPGSV,3,2,11,16,03,283,22,18,19,172,40,20,07,102,23,25,50,105,43*72
"
1622883883.7181058,"$GPGSV,3,3,11,26,29,288,38,29,85,115,42,31,59,268,46*4A
"
1622883883.7332397,"!AIVDM,1,1,,B,33ajAt0P@APAvN>MidJcu8uD00tP,0*5C
"
1622883883.7500203,"$GPGLL,5157.43239,N,00402.09710,E,090443.00,A,A*63
"
1622883883.7607362,"!AIVDM,1,1,,A,13anGb0000PBVjHMg7n:QIIF058@,0*4B
"
1622883883.7751658,"!AIVDM,1,1,,A,13aGCnh01=PBjfLMg;tDa3gDP<8t,0*59
"
1622883883.7859235,"!AIVDM,1,1,,B,13aoiP001M0Bm`dMgJ`TSSCF058@,0*5B
"
1622883884.149065,"!AIVDM,1,1,,A,13a8BL0000PBOLpMamqd5aiF0@Il,0*68
"
1622883884.1742883,"!AIVDM,1,1,,B,33aFfo0P0wPBTg@Mev5qowwFR853,0*12
"
1622883884.22917,"!AIVDM,1,1,,A,402Dw?1vERa4c0Ad44MaM:O02<<:,0*43
"
1622883884.282721,"$GPRMC,090444.00,A,5157.43239,N,00402.09710,E,0.026,,050621,,,A*79
"
1622883884.3233232,"$GPVTG,,T,,M,0.026,N,0.048,K,A*2B
"
1622883884.384494,"$GPGGA,090444.00,5157.43239,N,00402.09710,E,1,10,0.96,8.7,M,45.9,M,,*58
"
1622883884.4469566,"$GPGSA,A,3,25,12,29,02,31,04,18,26,20,05,,,1.61,0.96,1.29*00
"
1622883884.4609776,"!AIVDM,1,1,,A,33aDq=0000PBMnTMf4BCjHUHP39C,0*12
"
1622883884.5216475,"$GPGSV,3,1,11,02,19,040,40,04,11,331,28,05,05,093,21,12,14,102,23*73
"
1622883884.5372875,"!AIVDM,2,1,9,A,53aNbtT000010;OWG40e9HG?T00000000000001S0H722t0Ht0000000,0*7B
"
1622883884.5815947,"!AIVDM,2,2,9,A,000000000000000,2*2D
"
1622883884.5942466,"$GPGSV,3,2,11,16,03,284,22,18,19,172,40,20,07,102,23,25,50,105,43*75
"
1622883884.643803,"!AIVDM,1,1,,A,138nCj002E0BiURMgQwDCSK@058@,0*1E
"
1622883884.6955175,"$GPGSV,3,3,11,26,29,288,39,29,85,115,42,31,59,268,46*4B
"
1622883884.7112906,"$GPGLL,5157.43239,N,00402.09710,E,090444.00,A,A*64
"
1622883884.721811,"!AIVDM,1,1,,B,133kjEPP00PBN7pMffgqHwwFR0Sj,0*45
"
1622883884.7345138,"!AIVDM,1,1,,B,33`gb9@0000BfBfMfpGql`WH0000,0*47
"
1622883884.788749,"!AIVDM,1,1,,B,13lo@t0000PBtcLMfqBFEQED058@,0*6F
"
1622883884.8691516,"!AIVDM,1,1,,A,13aIk>C00<PC7LjMk6A1O0eB0@J?,0*19
"
1622883884.9493892,"!AIVDM,1,1,,B,13aGsuPP00PBMh6Mf?BN4?wH058@,0*57
"
1622883885.2925758,"$GPRMC,090445.00,A,5157.43238,N,00402.09711,E,0.024,,050621,,,A*7A
"
1622883885.3270955,"$GPVTG,,T,,M,0.024,N,0.044,K,A*25
"
1622883885.3883548,"$GPGGA,090445.00,5157.43238,N,00402.09711,E,1,10,0.93,8.7,M,45.9,M,,*5C
"
1622883885.451899,"$GPGSA,A,3,25,12,29,02,31,04,18,26,20,05,,,1.53,0.93,1.21*0C
"
1622883885.5197449,"$GPGSV,3,1,11,02,19,040,41,04,11,331,28,05,05,093,23,12,14,102,23*70
"
1622883885.5868478,"$GPGSV,3,2,11,16,03,284,22,18,19,172,40,20,07,102,23,25,50,105,43*75
"
1622883885.6476352,"!AIVDM,1,1,,B,13:hoR?001PBWATMfMU30`3F058@,0*4E
"
1622883885.699042,"$GPGSV,3,3,11,26,29,288,39,29,85,115,42,31,59,268,46*4B
"
1622883885.7119875,"$GPGLL,5157.43238,N,00402.09711,E,090445.00,A,A*65
"
1622883885.7472951,"!AIVDM,1,1,,B,139eag0P12PBV8fMg4WsCwwJ258@,0*48
"
1622883885.772327,"!AIVDM,1,1,,B,139elr0P00PC65:Mf6knigwJR0Rr,0*46
"
1622883885.9073513,"!AIVDM,1,1,,B,13aO@WU01<PBoD<Mg2Lt<agJRD7w,0*75
"
1622883885.9629765,"!AIVDM,1,1,,A,13aoiP001J0Bmc8MgJU4T3AJ0@Jp,0*0B
"
1622883886.2853389,"$GPRMC,090446.00,A,5157.43238,N,00402.09713,E,0.010,,050621,,,A*7C
"
1622883886.3298979,"!AIVDM,1,1,,A,339vu<PPAS0BdvNMg790d0EH015i,0*0C
"
1622883886.3830638,"$GPVTG,,T,,M,0.010,N,0.018,K,A*2B
"
1622883886.393811,"!AIVDM,1,1,,B,13aENQ@P00PBStRMeqtA;gwJ2@K3,0*6C
"
1622883886.4532018,"$GPGGA,090446.00,5157.43238,N,00402.09713,E,1,10,0.93,8.8,M,45.9,M,,*52
"
1622883886.5164888,"!AIVDM,1,1,,B,13aDpUhP000CMBFMe9I8twwN2<B`,0*53
"
1622883886.530167,"$GPGSA,A,3,25,12,29,02,31,04,18,26,20,05,,,1.53,0.93,1.21*0C
"
1622883886.591209,"$GPGSV,3,1,11,02,19,040,41,04,11,331,29,05,05,093,24,12,14,102,23*76
"
1622883886.6042178,"$GPGSV,3,2,11,16,03,284,22,18,20,172,40,20,07,102,22,25,50,105,43*7E
"
1622883886.6477945,"!AIVDM,1,1,,A,33aN1ImP00PBS7dMfHCP0?wL2JS@,0*71
"
1622883886.698966,"$GPGSV,3,3,11,26,29,288,41,29,85,115,41,31,59,268,46*47
"
1622883886.712604,"$GPGLL,5157.43238,N,00402.09713,E,090446.00,A,A*64
"
1622883886.8122845,"!AIVDM,1,1,,B,140UvN0P1GPC=d:Mf3MlcOwLR8KH,0*5C
"
1622883886.8425813,"!AIVDM,1,1,,B,33:BN>3Oh<PBK@>MgtLcpP7N00kQ,0*30
"
1622883886.8665032,"!AIVDM,1,1,,A,33ajAt0P@APAvMPMidMKu8sL00sA,0*05
"
1622883886.9227164,"!AIVDM,1,1,,B,14SHkL80000BQ;DMg@kC;a=N0L>5,0*54
"
1622883886.9729452,"!AIVDM,1,1,,A,33Eocf0Oi0PBfQhMg75@VPIH2240,0*09
"
1622883887.0031822,"!AIVDM,1,1,,B,139Fnw0001PBgkRMfvK`ma7N0@KO,0*7B
"
1622883887.1333652,"!AIVDM,1,1,,A,133tj7PP000BN92Mf1e9BgwNR58@,0*4C
"
1622883887.163403,"!AIVDM,1,1,,A,13e>vt400hPBe?hMgGAe0:CJ80S0,0*20
"
1622883887.2139926,"!AIVDM,1,1,,B,33aDAwhP00PBaMFMfOe7bwwLR35S,0*69
"
1622883887.2853763,"$GPRMC,090447.00,A,5157.43240,N,00402.09712,E,0.020,,050621,,,A*70
"
1622883887.3297813,"!AIVDM,1,1,,B,13aEO<PP19PBn8LMeuLbswwJ2<::,0*34
"
1622883887.3829093,"$GPVTG,,T,,M,0.020,N,0.037,K,A*25
"
1622883887.3961735,"$GPGGA,090447.00,5157.43240,N,00402.09712,E,1,10,0.93,8.9,M,45.9,M,,*5C
"
1622883887.4504244,"$GPGSA,A,3,25,12,29,02,31,04,18,26,20,05,,,1.53,0.93,1.21*0C
"
1622883887.4646509,"!AIVDM,1,1,,A,13aDpshP1CPBqGrMg>;Dt?wLRL=5,0*13
"
1622883887.519646,"$GPGSV,3,1,11,02,19,040,41,04,11,331,29,05,05,093,24,12,14,102,24*71
"
1622883887.5831134,"!AIVDM,1,1,,B,340UvDEP00PBM`tMflj0?gwJ2DW:,0*48
"
1622883887.598671,"$GPGSV,3,2,11,16,03,284,,18,20,172,40,20,07,102,22,25,50,105,43*7E
"
1622883887.6476533,"!AIVDM,1,1,,B,13aPNpwP00PBo9bMfTov4?wNR8Kk,0*37
"
1622883887.6992795,"$GPGSV,3,3,11,26,29,288,37,29,85,115,42,31,59,268,46*45
"
1622883887.7157166,"$GPGLL,5157.43240,N,00402.09712,E,090447.00,A,A*6B
"
1622883887.7262664,"!AIVDM,1,1,,B,133stVPP1?PBobDMg@c8NOwL2D7H,0*12
"
1622883887.747166,"!AIVDM,1,1,,B,13aL=>PP00PBGn4Mfl<S?OwL28Ks,0*57
"
1622883887.8023841,"!AIVDM,1,1,,B,138b>F001J0BSQ<Mgu4;BHwP0<>m,0*10
"
1622883887.9629574,"!AIVDM,1,1,,B,13ev>H00040BA<8MfPS=?PsF00RE,0*29
"
1622883888.0678031,"!AIVDM,1,1,,A,33aNbtgP00PBGH:MfmNf4?wN201i,0*09
"
1622883888.2872932,"$GPRMC,090448.00,A,5157.43241,N,00402.09714,E,0.014,,050621,,,A*7F
"
1622883888.3314214,"!AIVDM,1,1,,A,83aNbtPj2P00000000<PD?`50000,0*0E
"
1622883888.3837998,"$GPVTG,,T,,M,0.014,N,0.025,K,A*21
"
1622883888.3970282,"$GPGGA,090448.00,5157.43241,N,00402.09714,E,1,10,0.93,9.0,M,45.9,M,,*5C
"
1622883888.4517105,"!AIVDM,1,1,,B,33aN1ImP00PBS7dMfHC@0?wP2Ddb,0*65
"
1622883888.4658177,"$GPGSA,A,3,25,12,29,02,31,04,18,26,20,05,,,1.53,0.93,1.21*0C
"
1622883888.5229373,"!AIVDM,2,1,4,B,53dn=082EjU;TP7CK;E8uA@E8@4n22222222220l1@C3:40Ht?4d551D,0*73
"
1622883888.5845103,"!AIVDM,2,2,4,B,Q0CH88888888880,2*49
"
1622883888.5975964,"$GPGSV,3,1,11,02,19,040,41,04,11,331,28,05,05,093,25,12,14,102,24*71
"
1622883888.648444,"!AIVDM,1,1,,A,13aSQ700000BbBjMfQLMw:iR0<?9,0*4F
"
1622883888.7073092,"$GPGSV,3,2,11,16,03,284,,18,20,172,40,20,08,102,22,25,50,105,43*71
"
1622883888.7179005,"!AIVDM,1,1,,A,13aGtpPP00PBMRHMf8U00?wP258@,0*62
"
1622883888.7330105,"$GPGSV,3,3,11,26,29,288,39,29,85,115,41,31,59,268,46*48
"
1622883888.7436032,"$GPGLL,5157.43241,N,00402.09714,E,090448.00,A,A*63
"
1622883888.9234111,"!AIVDM,1,1,,A,13aGDQ0P00PBGfBMfiB>4?wP2D6d,0*30
"
1622883889.078913,"!AIVDM,1,1,,A,13aJHWUP00PBSf@Mf0sMD?wP2000,0*09
"
1622883889.1084168,"!AIVDM,1,1,,B,13aGu<wP00PBADnMgIlf4?wR20S9,0*39
"
1622883889.1890063,"!AIVDM,1,1,,B,338GS250000BBUnMfctufneN0DrJ,0*13
"
1622883889.2870977,"$GPRMC,090449.00,A,5157.43242,N,00402.09716,E,0.018,,050621,,,A*73
"
1622883889.3314738,"!AIVDM,1,1,,A,33:BN>3Oh=PBK?rMgtMd0P=R0000,0*6B
"
1622883889.3834968,"$GPVTG,,T,,M,0.018,N,0.033,K,A*2A
"
1622883889.3941846,"!AIVDM,1,1,,A,13aBN`hP0Q0BFN`MfhoKrgvLPTqt,0*23
"
1622883889.4547622,"$GPGGA,090449.00,5157.43242,N,00402.09716,E,1,10,0.93,9.0,M,45.9,M,,*5C
"
1622883889.5167072,"!AIVDM,1,1,,A,137bHJ00QsPC77`MfMHd4qaT00SO,0*04
"
1622883889.5273204,"!AIVDM,1,1,,A,13ku;Q@wA@PBsmlMfkpTsSuP0D3w,0*57
"
1622883889.5829613,"!AIVDM,1,1,,B,13aEQ8hP00PBw;`MfLFf4?wR2@Lp,0*4B
"
1622883889.5975144,"$GPGSA,A,3,25,12,29,02,31,04,18,26,20,05,,,1.53,0.93,1.21*0C
"
1622883889.6537225,"$GPGSV,3,1,11,02,19,040,40,04,11,331,28,05,05,093,26,12,14,102,24*73
"
1622883889.7085748,"$GPGSV,3,2,11,16,03,284,,18,20,172,40,20,08,102,22,25,50,105,43*71
"
1622883889.719206,"$GPGSV,3,3,11,26,29,288,39,29,85,115,41,31,59,268,46*48
"
1622883889.7340622,"!AIVDM,1,1,,A,339p:e001EPC0h6MfU<sukuT05L3,0*4D
"
1622883889.750698,"$GPGLL,5157.43242,N,00402.09716,E,090449.00,A,A*63
"
1622883889.7614455,"!AIVDM,1,1,,B,14S0lB00000BgS@MfvwqDq?T0D=q,0*56
"
1622883889.7735765,"!AIVDM,1,1,,B,33`ga7EP010BnsfMff`VQgwP0Dib,0*7C
"
1622883889.7988858,"!AIVDM,1,1,,A,13aKWAoP01PBQ2bMegjVUgwR258@,0*2E
"
1622883890.069601,"!AIVDM,1,1,,B,33ajAt0P@@PAvLrMidOKu8qR0000,0*08
"
1622883890.1499987,"!AIVDM,1,1,,A,33ev>H00040BA<8MfPS=?PuJ0000,0*35
"
1622883890.230214,"!AIVDM,1,1,,B,13aFfQ0P00PBMVdMf8O43wwR28MH,0*3C
"
1622883890.2858255,"$GPRMC,090450.00,A,5157.43243,N,00402.09718,E,0.028,,050621,,,A*77
"
1622883890.3264992,"$GPVTG,,T,,M,0.028,N,0.052,K,A*2E
"
1622883890.383438,"!AIVDM,1,1,,B,13aDppOP00PBPvTMgAkC6OwR20Rt,0*46
"
1622883890.400661,"$GPGGA,090450.00,5157.43243,N,00402.09718,E,1,10,0.93,9.1,M,45.9,M,,*5A
"
1622883890.4507844,"!AIVDM,1,1,,B,134;7F0vAt0B@u`Mhwu;kqGR0@MM,0*6E
"
1622883890.4648087,"$GPGSA,A,3,25,12,29,02,31,04,18,26,20,05,,,1.53,0.93,1.21*0C
"
1622883890.5167742,"!AIVDM,1,1,,A,13aDqIhP00PBMKjMf:N>4?wTR58@,0*29
"
1622883890.5331473,"$GPGSV,3,1,11,02,19,040,40,04,11,331,29,05,05,093,26,12,14,102,25*73
"
1622883890.5914097,"$GPGSV,3,2,11,16,03,284,,18,20,172,40,20,08,102,22,25,50,105,43*71
"
1622883890.6020582,"!AIVDM,1,1,,B,18HwF:00iCPBNfvMgs9lOSWN0@MT,0*69
"
1622883890.6510437,"$GPGSV,3,3,11,26,29,288,39,29,85,115,40,31,59,268,45*4A
"
1622883890.7085507,"!AIVDM,2,1,1,A,53aGvF82Fn<E0=Lj22099EAE>22222222222220O1HI695QeN73S81ED,0*59
"
1622883890.7191312,"!AIVDM,2,2,1,A,`88888888888880,2*7D
"
1622883890.7342317,"$GPGLL,5157.43243,N,00402.09718,E,090450.00,A,A*64
"
1622883890.7447886,"!AIVDM,1,1,,B,138nCj002D0BiiLMgQc4@CKL08MW,0*2A
"
1622883890.7592003,"!AIVDM,1,1,,A,13JNv:0P0e0C:k`Mes4m6wwV0@Mb,0*26
"
1622883890.769952,"!AIVDM,1,1,,A,13aO@d@P01PBns>MfgoQN?wT28Mc,0*0A
"
1622883891.1126642,"!AIVDM,1,1,,B,33Eocf0Oi1PBfS0Mg7FPcPMP20o@,0*32
"
1622883891.1707819,"!AIVDM,2,1,2,A,5815BFT2C9nUKLaGF20P59HE=B1@TlF222222216I8TK=5N00MTSm51D,0*03
"
1622883891.1815894,"!AIVDM,2,2,2,A,Q0CH88888888880,2*4C
"
1622883891.195832,"!AIVDM,1,1,,B,137O9b000vPBeB6Mfrj0NPUT0<<P,0*3D
"
1622883891.2064276,"!AIVDM,1,1,,B,13aC5Q0P00PBFj<MffEVdgwTR<3w,0*57
"
1622883891.2858853,"$GPRMC,090451.00,A,5157.43245,N,00402.09720,E,0.013,,050621,,,A*73
"
1622883891.3263247,"$GPVTG,,T,,M,0.013,N,0.024,K,A*27
"
1622883891.385699,"$GPGGA,090451.00,5157.43245,N,00402.09720,E,1,10,0.93,9.1,M,45.9,M,,*56
"
1622883891.4490316,"!AIVDM,1,1,,B,13`hrChP1APBJiTMgH<KCgwT0`N2,0*0D
"
1622883891.46347,"$GPGSA,A,3,25,12,29,02,31,04,18,26,20,05,,,1.53,0.93,1.21*0C
"
1622883891.5189078,"$GPGSV,3,1,11,02,19,040,40,04,11,331,29,05,05,093,26,12,14,102,26*70
"
1622883891.591605,"$GPGSV,3,2,11,16,03,284,,18,20,172,40,20,08,102,22,25,50,105,43*71
"
1622883891.6022174,"!AIVDM,1,1,,A,13esf>00000Bv:pMfPt;BVoV0HN:,0*31
"
1622883891.6468916,"!AIVDM,1,1,,B,14RvgN00000BVARMfLE:585R08N9,0*17
"
1622883891.6985135,"$GPGSV,3,3,11,26,29,288,39,29,85,115,41,31,59,268,46*48
"
1622883891.7150905,"$GPGLL,5157.43245,N,00402.09720,E,090451.00,A,A*68
"
1622883891.7258484,"!AIVDM,1,1,,A,13`fL=0000PBGhlMfk<@>2eVPt3T,0*42
"
1622883891.7376554,"!AIVDM,1,1,,B,13aoiP001G0BmijMgJElgk7V08N@,0*58
"
1622883891.776868,"!AIVDM,1,1,,A,38K=2850000BMT0MfsMP`47V0P00,0*1F
"
1622883892.0128086,"!AIVDM,1,1,,A,13`i@jPP0wPBfHFMg;2pmwwVR0Sv,0*15
"
1622883892.0429688,"!AIVDM,1,1,,B,13`hqgPP00PB`D>Mfm3BLgwVR8NL,0*64
"
1622883892.1228175,"!AIVDM,1,1,,A,134:of80000Bn5`MfwPM;CTp0@NO,0*0E
"
1622883892.2281678,"!AIVDM,1,1,,A,14Qvm`00000BgsnMfv@;ra9`0<B@,0*63
"
1622883892.2879813,"$GPRMC,090452.00,A,5157.43247,N,00402.09721,E,0.031,,050621,,,A*73
"
1622883892.340408,"!AIVDM,2,1,3,A,53b17:82=k5a0P<V221=HUA`E:0l58dDr222220l2P:5640Ht<20DPSm,0*19
"
1622883892.3850145,"!AIVDM,2,2,3,A,D`53mhAiH888880,2*58
"
1622883892.3958402,"$GPVTG,,T,,M,0.031,N,0.057,K,A*23
"
1622883892.4516256,"!AIVDM,1,1,,B,33:BN>3Oh=PBK?JMgtOd3@Cb0100,0*0E
"
1622883892.4683208,"$GPGGA,090452.00,5157.43247,N,00402.09721,E,1,10,0.93,9.1,M,45.9,M,,*56
"
1622883892.5175664,"$GPGSA,A,3,25,12,29,02,31,04,18,26,20,05,,,1.53,0.93,1.21*0C
"
1622883892.5368502,"$GPGSV,3,1,11,02,19,040,40,04,11,331,32,05,05,093,26,12,14,102,26*7A
"
1622883892.5848446,"!AIVDM,1,1,,A,19NSPSP00dPC;<NMeq`E0l3V08Nf,0*3B
"
1622883892.6002567,"$GPGSV,3,2,11,16,03,284,,18,20,172,40,20,08,102,22,25,50,105,43*71
"
1622883892.6512938,"$GPGSV,3,3,11,26,29,288,39,29,85,115,41,31,59,268,46*48
"
1622883892.7010636,"!AIVDM,1,1,,A,13aBNA@P00PBP=pMg6Oh0?w`20Sd,0*01
"
1622883892.7179623,"$GPGLL,5157.43247,N,00402.09721,E,090452.00,A,A*68
"
1622883892.7286432,"!AIVDM,1,1,,A,13`oeUPP00PC5wvMf7J>4?w`R<7:,0*2B
"
1622883892.739289,"!AIVDM,1,1,,B,33`dVGEP010BQA8Mfia>4?w`2000,0*7D
"
1622883893.0552108,"!AIVDM,1,1,,A,13aGsl@P1<PBV94MfneS?gw`R<80,0*13
"
1622883893.2881026,"$GPRMC,090453.00,A,5157.43249,N,00402.09721,E,0.032,,050621,,,A*7F
"
1622883893.3256176,"!AIVDM,1,1,,A,?3aDq=0r;9UlD00,2*7C
"
1622883893.3821883,"$GPVTG,,T,,M,0.032,N,0.060,K,A*24
"
1622883893.3932261,"!AIVDM,1,1,,B,33aDBIEP00PBfIbMfmG>4?w`2Dlb,0*1A
"
1622883893.4522135,"$GPGGA,090453.00,5157.43249,N,00402.09721,E,1,10,0.93,9.1,M,45.9,M,,*59
"
1622883893.5158277,"$GPGSA,A,3,25,12,29,02,31,04,18,26,20,05,,,1.53,0.93,1.21*0C
"
1622883893.534838,"$GPGSV,3,1,11,02,19,040,40,04,11,331,26,05,05,093,26,12,14,102,27*7E
"
1622883893.5906398,"$GPGSV,3,2,11,16,03,284,,18,20,172,40,20,08,102,22,25,50,105,43*71
"
1622883893.6016119,"!AIVDM,1,1,,A,133n<`PP00PBNKbMf8A>4?wbR0S8,0*2B
"
1622883893.647352,"!AIVDM,1,1,,A,13aI:I3005PC012MjraHhkOd08OF,0*0C
"
1622883893.7000248,"$GPGSV,3,3,11,26,29,288,38,29,85,115,41,31,59,268,46*49
"
1622883893.716843,"!AIVDM,1,1,,B,33a5Jn5000PBpf:MgM07211V2000,0*68
"
1622883893.7276404,"$GPGLL,5157.43249,N,00402.09721,E,090453.00,A,A*67
"
1622883893.7500827,"!AIVDM,2,1,4,A,53aSQ742CtAE099:220l59>2222222222222220l1HE664Nb0=lSm51D,0*47
"
1622883893.7611423,"!AIVDM,2,2,4,A,Q0CH88888888880,2*4A
"
1622883893.7747982,"!AIVDM,1,1,,A,1342dB0PA<0BigJMg>IDRSPD0PS5,0*25
"
1622883893.7859268,"!AIVDM,1,1,,A,339vu<PPAR0BdvhMg7phPh=V00tP,0*49
"
1622883893.80271,"!AIVDM,1,1,,A,13aoiP0PAF0BmjnMgJCTfC9b0@ON,0*17
"
1622883893.827629,"!AIVDM,1,1,,A,13aGsuPP00PBMgvMf?9N4?wb00SW,0*33
"
1622883893.9379086,"!AIVDM,1,1,,B,13aC4b@P000BM10Mf=GqD?wdR0SL,0*48
"
1622883894.1486826,"!AIVDM,1,1,,A,13aO@WU01<PBo=lMg2p<<agdR0Sk,0*09
"
1622883894.2284958,"!AIVDM,1,1,,B,402Dw?1vERa4m0Ad46MaM:O02<<J,0*3C
"
1622883894.2854807,"$GPRMC,090454.00,A,5157.43249,N,00402.09724,E,0.014,,050621,,,A*79
"
1622883894.3295581,"!AIVDM,1,1,,B,43aK`Nl47wk?0PBt8FMoDi700t7G,0*7E
"
1622883894.3828268,"$GPVTG,,T,,M,0.014,N,0.026,K,A*22
"
1622883894.3960588,"$GPGGA,090454.00,5157.43249,N,00402.09724,E,1,10,0.93,9.2,M,45.9,M,,*58
"
1622883894.4491973,"!AIVDM,1,1,,A,13aEQ=@P0bPB`GFMfuccmgwd20Sl,0*27
"
1622883894.4600003,"!AIVDM,1,1,,A,13Eocf0Oi1PBfTDMg7Whf@Q`20Rw,0*5A
"
1622883894.5164976,"$GPGSA,A,3,25,12,29,02,31,04,18,26,20,05,,,1.53,0.93,1.21*0C
"
1622883894.5355306,"$GPGSV,3,1,11,02,19,040,41,04,11,331,28,05,05,093,26,12,14,102,27*71
"
1622883894.582357,"!AIVDM,1,1,,A,13aGEw0P00PBlr8Mg3:00?wd28Oo,0*41
"
1622883894.5932903,"!AIVDM,1,1,,B,13aDq=0000PBMnTMf4BD4pUdP58@,0*5A
"
1622883894.6515326,"$GPGSV,3,2,11,16,03,284,,18,20,172,40,20,08,102,22,25,50,105,43*71
"
1622883894.6989846,"$GPGSV,3,3,11,26,29,288,40,29,85,115,41,31,59,268,46*46
"
1622883894.7236319,"!AIVDM,2,1,5,A,53`dVGH000010?C3;<0984i@580000000000001@<@<48uRbK8TSm51D,0*02
"
1622883894.7342818,"!AIVDM,2,2,5,A,Q0CH1EDSl0B0EQ@,2*62
"
1622883894.7451131,"$GPGLL,5157.43249,N,00402.09724,E,090454.00,A,A*65
"
1622883894.7573512,"!AIVDM,1,1,,A,13:hoR?000PBWATMfMU:2`3`058@,0*61
"
1622883894.7681122,"!AIVDM,1,1,,B,83aGEM@j2d<d<>LvL@O0J@UE7TP0,0*76
"
1622883894.827587,"!AIVDM,2,1,5,B,5341Th`00000uCGCKH0e8ttq=@4@00000000001@@p00B5QGe00CU5iD,0*13
"
1622883894.838271,"!AIVDM,2,2,5,B,T4iH20EQC`;H11@,2*55
"
1622883895.0026865,"!AIVDM,1,1,,B,13a8BL0000PBOLnMamqL5aid00RH,0*30
"
1622883895.0830188,"!AIVDM,1,1,,B,13aGCnh01<PBjpjMg;P4aCebPL93,0*5D
"
1622883895.1072633,"!AIVDM,1,1,,B,8341ThPj2d=dL=Md>B`iGgbh00P0,0*45
"
1622883895.2857533,"$GPRMC,090455.00,A,5157.43248,N,00402.09724,E,0.019,,050621,,,A*74
"
1622883895.3262033,"$GPVTG,,T,,M,0.019,N,0.035,K,A*2D
"
1622883895.3875008,"$GPGGA,090455.00,5157.43248,N,00402.09724,E,1,10,0.93,9.3,M,45.9,M,,*59
"
1622883895.4496315,"$GPGSA,A,3,25,12,29,02,31,04,18,26,20,05,,,1.53,0.93,1.21*0C
"
1622883895.4710693,"!AIVDM,2,1,6,B,53a;pr42@OLi0PaF221=@Dp61A84q<UB2222220u0k>;@=S5??SS825R,0*20
"
1622883895.5161324,"!AIVDM,2,2,6,B,81hRj3H5p888880,2*7E
"
1622883895.529757,"$GPGSV,3,1,11,02,19,040,40,04,11,331,32,05,05,093,26,12,14,102,27*7B
"
1622883895.5914874,"$GPGSV,3,2,11,16,03,284,,18,20,172,40,20,08,102,21,25,50,105,43*72
"
1622883895.6021876,"!AIVDM,1,1,,A,139eag0P13PBUwnMg4oKBgwf258@,0*33
"
1622883895.6479661,"!AIVDM,1,1,,A,133kjEPP00PBN7jMffhaHwwdR@PQ,0*29
"
1622883895.6998715,"$GPGSV,3,3,11,26,29,288,39,29,85,115,41,31,59,268,46*48
"
1622883895.7159894,"$GPGLL,5157.43248,N,00402.09724,E,090455.00,A,A*65
"
1622883895.7265868,"!AIVDM,1,1,,A,83`dVG@j2d<dtd<tLR9Pq2w@:`t0,0*59
"
1622883895.7386096,"!AIVDM,1,1,,A,13aFfo0P0wPBTUpMeupItOwdR@PV,0*16
"
1622883895.8275337,"!AIVDM,1,1,,B,13aoiP0PAG0Bmn6MgJ9Dg37f058@,0*54
"
1622883895.8526409,"!AIVDM,1,1,,A,138nCj002F0BisBMgQJ4BkKV08Pc,0*0F
"
1622883896.0130746,"!AIVDM,1,1,,A,33:BN>3Oh=PBK?4MgtRt8hKh014i,0*02
"
1622883896.0529134,"!AIVDM,1,1,,A,13aC580P010BfLrMfBOFnOwdPHQH,0*13
"
1622883896.2865236,"$GPRMC,090456.00,A,5157.43247,N,00402.09724,E,0.036,,050621,,,A*75
"
1622883896.3308554,"!AIVDM,1,1,,B,139a9JPP00PC1oLMelD9c?whR<3K,0*61
"
1622883896.3836539,"$GPVTG,,T,,M,0.036,N,0.067,K,A*27
"
1622883896.3973732,"$GPGGA,090456.00,5157.43247,N,00402.09724,E,1,10,0.93,9.5,M,45.9,M,,*53
"
1622883896.451827,"$GPGSA,A,3,25,12,29,02,31,04,18,26,20,05,,,1.53,0.93,1.22*0F
"
1622883896.5194757,"$GPGSV,3,1,11,02,19,040,41,04,11,331,27,05,05,093,26,12,14,102,28*71
"
1622883896.5918999,"$GPGSV,3,2,11,16,03,284,,18,20,172,40,20,08,102,21,25,50,105,43*72
"
1622883896.6025167,"!AIVDM,1,1,,A,14SHkL80000BQ;:Mg@j3;a=j00Ri,0*30
"
1622883896.651091,"$GPGSV,3,3,11,26,29,288,40,29,85,115,41,31,59,268,46*46
"
1622883896.6987634,"$GPGLL,5157.43247,N,00402.09724,E,090456.00,A,A*69
"
1622883896.7631688,"!AIVDM,1,1,,A,13aL=>PP00PBGmvMfl<S?Owf2<3g,0*57
"
1622883896.7881827,"!AIVDM,1,1,,B,339vu<PPAR0BdvlMg8=@Lh5d00vi,0*39
"
1622883897.0033653,"!AIVDM,1,1,,B,33Eocf0Oi2PBfULMg7l0k0Uf21qP,0*48
"
1622883897.0539498,"!AIVDM,1,1,,B,133tj7PP000BN94Mf1dq?gwjR0Ro,0*19
"
1622883897.2859032,"$GPRMC,090457.00,A,5157.43245,N,00402.09724,E,0.016,,050621,,,A*74
"
1622883897.3246503,"$GPVTG,,T,,M,0.016,N,0.029,K,A*2F
"
1622883897.386229,"$GPGGA,090457.00,5157.43245,N,00402.09724,E,1,10,0.93,9.6,M,45.9,M,,*53
"
1622883897.448595,"!AIVDM,1,1,,A,13aDAwhP00PBaMFMfOe7bwwhR58@,0*54
"
1622883897.4624712,"$GPGSA,A,3,25,12,29,02,31,04,18,26,20,05,,,1.53,0.93,1.22*0F
"
1622883897.5144982,"!AIVDM,1,1,,B,13aBN`hP0R0BFK6Mfi5KwgvfQTqt,0*05
"
1622883897.5317054,"$GPGSV,3,1,11,02,19,040,41,04,11,331,28,05,05,093,26,12,14,102,28*7E
"
1622883897.5816236,"!AIVDM,1,1,,A,13aEO<PP18PBmuHMeuW:uOwh2HQ`,0*66
"
1622883897.5971496,"$GPGSV,3,2,11,16,03,284,,18,20,172,40,20,08,102,21,25,50,105,43*72
"
1622883897.6479888,"$GPGSV,3,3,11,26,29,288,38,29,85,109,41,31,59,268,46*44
"
1622883897.6986399,"!AIVDM,1,1,,A,43aK`NivERa4rPBt8FMoDi700`Qe,0*7E
"
1622883897.7145524,"$GPGLL,5157.43245,N,00402.09724,E,090457.00,A,A*6A
"
1622883897.7253213,"!AIVDM,1,1,,A,14`Uvg@01s0BevtMm2DRAAkh0@Qh,0*6E
"
1622883897.739857,"!AIVDM,1,1,,B,33ajAt0P@APAvK`MidTL4`mh00oi,0*39
"
1622883897.7504814,"!AIVDM,1,1,,B,33`gb9@0000BfBjMfpH8rHUj012P,0*78
"
1622883897.8262622,"!AIVDM,1,1,,A,13aoiP0PAG0Bmp>MgJ3Dg35j08Qm,0*0C
"
1622883897.858524,"!AIVDM,1,1,,A,13aEQ8hP00PBw;DMfLEv4?wj2<7w,0*47
"
1622883897.8691943,"!AIVDM,1,1,,B,133nj8PP00PBNnJMg8HI<OwlR0Rb,0*79
"
1622883897.936555,"!AIVDM,1,1,,A,138b>F001K0BSE2MguH;B91l08Qq,0*08
"
1622883897.9617634,"!AIVDM,1,1,,B,13e>vt400hPBe<DMgGj<rb?h8@Qr,0*0A
"
1622883898.0167968,"!AIVDM,1,1,,A,13ev>H00010BA?@MfPS<v11f0L<O,0*07
"
1622883898.2025445,"!AIVDM,1,1,,B,13aDpshP1DPBqQ<Mg=aTtwwhR8R3,0*77
"
1622883898.227616,"!AIVDM,1,1,,B,139gq8PP08PC762Mf>llVOwj258@,0*76
"
1622883898.2867417,"$GPRMC,090458.00,A,5157.43241,N,00402.09730,E,0.016,,050621,,,A*7A
"
1622883898.3304949,"!AIVDM,1,1,,A,1341=DPP00PBb1vMfPS>4?wj20S;,0*05
"
1622883898.3841166,"$GPVTG,,T,,M,0.016,N,0.030,K,A*27
"
1622883898.3976161,"$GPGGA,090458.00,5157.43241,N,00402.09730,E,1,10,0.93,9.9,M,45.9,M,,*52
"
1622883898.455696,"!AIVDM,2,1,6,A,53:0@w400000@K?C;P20l4pI8DB0@ETl4pr36w9?<0@6BuQh053S4U3L,0*2D
"
1622883898.5156617,"!AIVDM,2,2,6,A,<LMMU1DS@t<<<t0,2*5D
"
1622883898.5261412,"!AIVDM,1,1,,A,83aEQ=@j33b0G16i00000000000,2*06
"
1622883898.5838032,"$GPGSA,A,3,25,12,29,02,31,04,18,26,20,05,,,1.53,0.93,1.22*0F
"
1622883898.5977206,"!AIVDM,1,1,,A,133stVPP1APBoRrMg?s8FOwj2<7J,0*52
"
1622883898.6531312,"$GPGSV,3,1,11,02,19,040,41,04,11,331,32,05,05,093,26,12,14,102,28*75
"
1622883898.7075818,"$GPGSV,3,2,11,16,03,284,,18,20,172,40,20,08,102,21,25,50,105,43*72
"
1622883898.7181325,"!AIVDM,1,1,,B,13aGtpPP00PBMR8Mf8d@0?wl2@R@,0*73
"
1622883898.7333903,"!AIVDM,1,1,,B,33aDqBmP00PBPrHMgA`lL?wlRDnJ,0*4B
"
1622883898.7440314,"$GPGSV,3,3,11,26,29,288,40,29,85,109,41,31,59,268,45*48
"
1622883898.758432,"!AIVDM,1,1,,B,33aKWAoP00PBQ2NMegkv4?wl2=<A,0*29
"
1622883898.7752316,"$GPGLL,5157.43241,N,00402.09730,E,090458.00,A,A*64
"
1622883898.78588,"!AIVDM,1,1,,B,13b8Kr0000PBtC>MfrHabagh0PS7,0*27
"
1622883898.796469,"!AIVDM,1,1,,B,13ku;Q@wA@PBsu`MfkJTsSwj00Ri,0*49
"
1622883898.9233322,"!AIVDM,1,1,,A,13aGu<wP00PBADPMgImN4?wl2@RN,0*15
"
1622883898.9734585,"!AIVDM,1,1,,A,13euWD:0000Btg`Mfq?>1QCl0<2t,0*72
"
1622883899.0286312,"!AIVDM,1,1,,A,83:0@w0j2d<dte><N29Qjgk@6@P0,0*73
"
1622883899.1593533,"!AIVDM,1,1,,B,33:BN>3Oh>PBK>DMgtUd=@Qn0000,0*09
"
1622883899.1890132,"!AIVDM,1,1,,A,14S0lB00000BgSHMfw0IDq?n0<=r,0*62
"
1622883899.2839038,"$GPRMC,090459.00,A,5157.43240,N,00402.09728,E,0.013,,050621,,,A*76
"
1622883899.3242526,"$GPVTG,,T,,M,0.013,N,0.024,K,A*27
"
1622883899.3857431,"$GPGGA,090459.00,5157.43240,N,00402.09728,E,1,10,0.93,10.0,M,45.9,M,,*6A
"
1622883899.4478412,"$GPGSA,A,3,25,12,29,02,31,04,18,26,20,05,,,1.53,0.93,1.22*0F
"
1622883899.4618251,"!AIVDM,1,1,,B,13aNbtgP00PBGHHMfmMv4?wn258@,0*6C
"
1622883899.518117,"$GPGSV,3,1,11,02,19,040,41,04,11,331,31,05,05,093,25,12,14,102,28*75
"
1622883899.584595,"$GPGSV,3,2,11,16,03,284,,18,20,172,40,20,08,102,21,25,50,105,43*72
"
1622883899.6461177,"!AIVDM,1,1,,A,13aFfQ0P00PBMVPMf8NCtwwl2<33,0*05
"
1622883899.698311,"$GPGSV,3,3,11,26,29,288,37,29,85,109,41,31,59,267,45*47
"
1622883899.7149012,"!AIVDM,1,1,,B,137bHJ0viuPC6r6MfNAL5a`000RA,0*34
"
1622883899.7254508,"$GPGLL,5157.43240,N,00402.09728,E,090459.00,A,A*6D
"
1622883899.8016684,"!AIVDM,1,1,,B,13JNv:0P0e0C:ovMergU<Ov00LCh,0*00
"
1622883899.8270364,"!AIVDM,1,1,,A,13aGEV0000PBQ?DMf@bN481nR@S0,0*4C
"
1622883899.857144,"!AIVDM,1,1,,B,13aGDQ0P00PBGfJMfi@f4?wn20RQ,0*7A
"
1622883900.1725802,"!AIVDM,1,1,,A,339vu<PPAR0BdvPMg8QhGP3l0000,0*60
"
1622883900.2030697,"!AIVDM,1,1,,A,13aBKS@P00PBpTHMgM9e<?wn2@02,0*20
"
1622883900.2905872,"$GPRMC,090500.00,A,5157.43240,N,00402.09723,E,0.029,,050621,,,A*79
"
1622883900.3351302,"!AIVDM,1,1,,A,402E3MAvERa4sPBlo>MgVLQ02D=0,0*28
"
1622883900.388428,"$GPVTG,,T,,M,0.029,N,0.054,K,A*29
"
1622883900.4021947,"$GPGGA,090500.00,5157.43240,N,00402.09723,E,1,10,0.93,10.0,M,45.9,M,,*6C
"
1622883900.454804,"!AIVDM,1,1,,B,13aO@d@P01PBns>MfgpQQOv02D7;,0*42
"
1622883900.4687724,"$GPGSA,A,3,25,12,29,02,31,04,18,26,20,05,,,1.53,0.93,1.22*0F
"
1622883900.524766,"$GPGSV,3,1,11,02,19,040,40,04,11,331,32,05,05,093,26,12,14,102,27*7B
"
1622883900.5914557,"$GPGSV,3,2,11,16,03,284,,18,20,172,40,20,08,102,21,25,50,105,43*72
"
1622883900.6553478,"$GPGSV,3,3,11,26,29,288,36,29,85,109,41,31,59,267,45*46
"
1622883900.7030833,"$GPGLL,5157.43240,N,00402.09723,E,090500.00,A,A*6B
"
1622883900.7324047,"!AIVDM,1,1,,A,33aDppOP00PBPvTMgAkC6Ov0203A,0*70
"
1622883900.787586,"!AIVDM,1,1,,A,33aPNHmP00PBLT2MfCG<wOv0RDm:,0*38
"
1622883900.94815,"!AIVDM,1,1,,B,43aK`Nl47wk?0PBt8FMoDi700p0P,0*6A
"
1622883901.0279968,"!AIVDM,1,1,,A,13aC5Q0P00PBFj<MffEVdgv0R58D,0*00
"
1622883901.0533614,"!AIVDM,1,1,,A,33Eocf0Oi2PBfVVMg80Pq0cl20s@,0*54
"
1622883901.0835133,"!AIVDM,1,1,,A,83aDpp@j2d<dtfLuuj`iEgaE0000,0*17
"
1622883901.1638484,"!AIVDM,1,1,,B,134:of80000Bn5bMfwRe;CU:0D<P,0*07
"
1622883901.1888685,"!AIVDM,1,1,,A,137O9b000vPBeDHMfsKhRhV00D<P,0*05
"
1622883901.2926588,"$GPRMC,090501.00,A,5157.43240,N,00402.09721,E,0.030,,050621,,,A*72
"
1622883901.3330765,"$GPVTG,,T,,M,0.030,N,0.056,K,A*23
"
1622883901.393909,"$GPGGA,090501.00,5157.43240,N,00402.09721,E,1,10,0.93,10.1,M,45.9,M,,*6E
"
1622883901.4564981,"!AIVDM,1,1,,B,33JIVJ1001P?e`nMcoR0qa:00Df:,0*2F
"
1622883901.4670851,"!AIVDM,1,1,,B,14Qvm`00000BgsjMfv>Kra84080i,0*60
"
1622883901.5226095,"$GPGSA,A,3,25,12,29,02,31,04,18,26,20,05,,,1.53,0.93,1.22*0F
"
1622883901.542015,"$GPGSV,3,1,11,02,19,040,40,04,11,331,32,05,05,093,25,12,14,102,27*78
"
1622883901.5924695,"$GPGSV,3,2,11,16,03,284,,18,20,172,40,20,08,102,19,25,50,105,43*79
"
1622883901.6559706,"$GPGSV,3,3,11,26,29,288,37,29,85,109,42,31,59,267,45*44
"
1622883901.7057421,"!AIVDM,1,1,,A,13aoiP0PAG0BmrBMgIt4gS220<4F,0*33
"
1622883901.7172081,"$GPGLL,5157.43240,N,00402.09721,E,090501.00,A,A*68
"
1622883901.7741706,"!AIVDM,1,1,,B,13aDqIhP00PBMKdMf:Nf4?v2R@0w,0*51
"
1622883901.8292842,"!AIVDM,1,1,,A,14RvgN00000BVARMfLEb5840058D,0*29
"
1622883901.9898553,"!AIVDM,1,1,,B,138nCj002D0Bj7<MgQ64ACKj0<6w,0*2A
"
1622883902.0398397,"!AIVDM,1,1,,A,18HwF:011BPBNrlMgrhDNCWl0<<P,0*7E
"
1622883902.2872488,"$GPRMC,090502.00,A,5157.43240,N,00402.09720,E,0.036,,050621,,,A*76
"
1622883902.3315406,"!AIVDM,1,1,,B,13esf>00000Bv<LMfPvcBVn200Sc,0*0B
"
1622883902.3852954,"$GPVTG,,T,,M,0.036,N,0.067,K,A*27
"
1622883902.3988595,"$GPGGA,090502.00,5157.43240,N,00402.09720,E,1,10,0.93,10.1,M,45.9,M,,*6C
"
1622883902.4565969,"!AIVDM,2,1,7,A,53aBNS0000010CO3C01HtMDD000000000000001?=h0664@P05h00000,0*05
"
1622883902.5179527,"!AIVDM,2,2,7,A,000000000000000,2*23
"
1622883902.5287676,"$GPGSA,A,3,25,12,29,02,31,04,18,26,20,05,,,1.53,0.93,1.22*0F
"
1622883902.584632,"!AIVDM,1,1,,B,13`oeUPP00PC5wvMf7If4?v4R0SF,0*32
"
1622883902.6007836,"$GPGSV,3,1,11,02,19,040,40,04,11,331,31,05,05,093,24,12,14,102,27*7A
"
1622883902.6487465,"!AIVDM,1,1,,B,133n<`PP00PBNKfMf8?N4?v4RH1K,0*1C
"
1622883902.7088916,"$GPGSV,3,2,11,16,03,284,,18,20,172,40,20,08,102,19,25,50,105,43*79
"
1622883902.7195504,"!AIVDM,1,1,,A,13`hrChP1APBJTNMgHRsCwv40U8D,0*3B
"
1622883902.7345939,"!AIVDM,1,1,,B,13`i@jPP10PBfA@Mg:P8mgv4R0Rp,0*00
"
1622883902.745316,"$GPGSV,3,3,11,26,29,288,37,29,85,109,41,31,59,267,45*47
"
1622883902.7596655,"!AIVDM,1,1,,A,33AiRH3P@5PAj;tMb<iP;7:60000,0*1C
"
1622883902.7763548,"$GPGLL,5157.43240,N,00402.09720,E,090502.00,A,A*6A
"
1622883902.7870162,"!AIVDM,1,1,,A,83aBNS0j2d<dte<Ld29Pq?a@7<t0,0*39
"
1622883902.9496226,"!AIVDM,1,1,,A,13aC4b@P00PBM16Mf=FqB?v6RD7E,0*60
"
1622883903.0547297,"!AIVDM,1,1,,A,33aGG35P00PBMatMf6N>4?v4RDWJ,0*74
"
1622883903.109873,"!AIVDM,1,1,,A,13anGb0000PBVjHMg7n9paH40@1i,0*67
"
1622883903.2820396,"$GPRMC,090503.00,A,5157.43240,N,00402.09722,E,0.035,,050621,,,A*76
"
1622883903.3266473,"!AIVDM,1,1,,A,13`hqgPP00PB`D>Mfm3BLgv4R0RS,0*0F
"
1622883903.379712,"$GPVTG,,T,,M,0.035,N,0.065,K,A*26
"
1622883903.3902519,"!AIVDM,1,1,,B,13Eocf0Oi2PBfWlMg8<PtPf220Si,0*55
"
1622883903.4505775,"$GPGGA,090503.00,5157.43240,N,00402.09722,E,1,09,0.96,10.2,M,45.9,M,,*61
"
1622883903.513435,"!AIVDM,1,1,,A,33:BN>3Oh>PBK=fMgtWdE0`800l@,0*6A
"
1622883903.5240064,"!AIVDM,1,1,,B,13aGEw0P00PBlr>Mg3;RHgv62<7n,0*29
"
1622883903.5796194,"$GPGSA,A,3,25,12,29,02,31,04,18,26,05,,,,1.61,0.96,1.29*02
"
1622883903.5928326,"!AIVDM,1,1,,A,339eg`PP1VPC3H0MfKPd3?vb1RfA,0*4A
"
1622883903.6490781,"$GPGSV,3,1,11,02,19,040,40,04,11,331,31,05,05,093,22,12,14,102,27*7C
"
1622883903.6961513,"!AIVDM,1,1,,A,33Abld1vh1PA0B`MqRBQ6Ib28DOJ,0*3B
"
1622883903.712978,"!AIVDM,1,1,,B,339vu<PPAQ0Bdu`Mg8u0?K=p012P,0*3D
"
1622883903.7235446,"!AIVDM,1,1,,B,19NSPSP00dPC;ApMeqC524240@20,0*43
"
1622883903.7374775,"$GPGSV,3,2,11,16,03,284,,18,20,172,40,20,08,102,,25,50,105,43*71
"
1622883903.754917,"!AIVDM,1,1,,B,33ajAt0P@APAvJTMid`d28j400r0,0*51
"
1622883903.7655969,"$GPGSV,3,3,11,26,29,288,37,29,85,109,41,31,59,267,45*47
"
1622883903.7797976,"!AIVDM,1,1,,B,13aoiP0PAH0BmvRMgIgTg3260<4F,0*3C
"
1622883903.796796,"$GPGLL,5157.43240,N,00402.09722,E,090503.00,A,A*69
"
1622883903.8132474,"!AIVDM,2,1,7,B,53`i@j`000010WCOK@1<Dp@v0p5HF0000000001?=P?5:t0Ht2TSm51D,0*72
"
1622883903.8239276,"!AIVDM,2,2,7,B,Q0C@00000000000,2*42
"
1622883903.834746,"!AIVDM,1,1,,B,13aI:I3P@:PC012MjraDvkN80D>W,0*43
"
1622883903.9092848,"!AIVDM,1,1,,B,13aGsl@P1<PBVDjMfnlk>gv6R58D,0*29
"
1622883903.9345424,"!AIVDM,1,1,,B,13aBNA@P00PBP=rMg6OP0?v62H2@,0*52
"
1622883904.094896,"!AIVDM,1,1,,B,13aEQ=@P0bPB`BtMfus;n?v8282F,0*1E
"
1622883904.2820246,"$GPRMC,090504.00,A,5157.43238,N,00402.09720,E,0.023,,050621,,,A*7B
"
1622883904.3262,"!AIVDM,1,1,,A,402Dw?1vERa530Ad4:MaM:O0282K,0*67
"
1622883904.3797407,"$GPVTG,,T,,M,0.023,N,0.043,K,A*25
"
1622883904.3931339,"$GPGGA,090504.00,5157.43238,N,00402.09720,E,1,09,0.96,10.3,M,45.9,M,,*6A
"
1622883904.446764,"$GPGSA,A,3,25,12,29,02,31,04,18,26,05,,,,1.61,0.96,1.29*02
"
1622883904.5160043,"$GPGSV,3,1,11,02,19,040,41,04,11,331,30,05,05,093,20,12,14,102,27*7E
"
1622883904.5790331,"!AIVDM,1,1,,B,13aGsuPP00PBMh`Mf?9f4?v80@2T,0*48
"
1622883904.594639,"$GPGSV,3,2,11,16,03,284,,18,20,172,39,20,08,102,,25,50,105,43*7F
"
1622883904.6431806,"!AIVDM,1,1,,A,13aGCnh01<PBk2@Mg;74Ukb6PH2`,0*43
"
1622883904.6946955,"!AIVDM,1,1,,B,13:hoR?000PBWATMfMU:2`240<6m,0*1D
"
1622883904.710669,"$GPGSV,3,3,11,26,29,288,36,29,85,109,41,31,59,267,46*45
"
1622883904.7212198,"$GPGLL,5157.43238,N,00402.09720,E,090504.00,A,A*63
"
1622883904.7334654,"!AIVDM,1,1,,A,13a8BL0000PBOLnMamqL5ah8058D,0*0D
"
1622883904.7627194,"!AIVDM,1,1,,B,33`gb9@P@00BfBnMfpH`SpT80000,0*1D
"
1622883904.843018,"!AIVDM,1,1,,A,13aIk>COh=PC7O4Mk6O1QPf2058D,0*1D
"
1622883904.9734895,"!AIVDM,1,1,,B,133kjEPP00PBN7dMffhaHwv6R58D,0*7F
"
1622883905.1083097,"!AIVDM,1,1,,B,1342dB001<0BiqnMg>0DNkTb0PR2,0*7D
"
1622883905.1338303,"!AIVDM,1,1,,B,139eag0P13PBUodMg54KB?v:2@2u,0*37
"
1622883905.2143407,"!AIVDM,1,1,,B,13aO@WU01<PBo4vMg3NL;qb:RD7w,0*16
"
1622883905.2806592,"$GPRMC,090505.00,A,5157.43235,N,00402.09724,E,0.008,,050621,,,A*7A
"
1622883905.3251846,"!AIVDM,1,1,,B,13lo@t0000PBtcJMfqDVEQD60831,0*7B
"
1622883905.3775043,"$GPVTG,,T,,M,0.008,N,0.014,K,A*2E
"
1622883905.3907213,"$GPGGA,090505.00,5157.43235,N,00402.09724,E,1,09,0.96,10.4,M,45.9,M,,*65
"
1622883905.445769,"$GPGSA,A,3,25,12,29,02,31,04,18,26,05,,,,1.61,0.96,1.29*02
"
1622883905.5190535,"$GPGSV,3,1,11,02,19,040,41,04,11,331,30,05,05,093,20,12,14,102,27*7E
"
1622883905.529797,"!AIVDM,1,1,,B,13aFfo0P10PBTM:MeudIuwv8R0SI,0*1D
"
1622883905.5799935,"$GPGSV,3,2,11,16,03,284,,18,20,172,39,20,08,102,,25,50,105,43*7F
"
1622883905.6444368,"$GPGSV,3,3,11,26,29,288,38,29,85,109,41,31,59,267,46*4B
"
1622883905.6946433,"!AIVDM,1,1,,B,83`i@jPj2d<dtv==djIQ7?aE38L0,0*76
"
1622883905.711295,"$GPGLL,5157.43235,N,00402.09724,E,090505.00,A,A*6B
"
1622883905.7220197,"!AIVDM,1,1,,B,13aENQ@P00PBSt`Meqt@;gv:2<5T,0*4B
"
1622883905.803043,"!AIVDM,1,1,,A,133tj7PP000BN94Mf1da>gv<R@3F,0*64
"
1622883906.043436,"!AIVDM,1,1,,A,33ajAt0P@APAvJ0Midbd4`j:015A,0*53
"
1622883906.1336646,"!AIVDM,1,1,,B,13aC580P010BfLtMfBOW8?v8P<3P,0*72
"
1622883906.2816505,"$GPRMC,090506.00,A,5157.43233,N,00402.09721,E,0.032,,050621,,,A*73
"
1622883906.3224766,"$GPVTG,,T,,M,0.032,N,0.060,K,A*24
"
1622883906.3786688,"!AIVDM,1,1,,B,139elr0P00PC65:Mf6knigv:RH3`,0*3C
"
1622883906.3961399,"$GPGGA,090506.00,5157.43233,N,00402.09721,E,1,09,0.96,10.5,M,45.9,M,,*64
"
1622883906.4454575,"$GPGSA,A,3,25,12,29,02,31,04,18,26,05,,,,1.61,0.96,1.29*02
"
1622883906.5156403,"$GPGSV,3,1,11,02,19,040,41,04,11,331,30,05,05,093,20,12,14,102,28*71
"
1622883906.5872545,"$GPGSV,3,2,11,16,03,284,,18,20,172,39,20,08,102,,25,50,105,43*7F
"
1622883906.598003,"!AIVDM,1,1,,B,33:BN>3Oh<PBK=HMgtaLMhd>00jA,0*0E
"
1622883906.6451483,"$GPGSV,3,3,11,26,29,288,37,29,85,109,41,31,59,267,45*47
"
1622883906.6929307,"$GPGLL,5157.43233,N,00402.09721,E,090506.00,A,A*6B
"
1622883906.8676558,"!AIVDM,1,1,,B,139Fnw0000PBgkJMfvMHma4<0<Cc,0*65
"
1622883906.9730306,"!AIVDM,1,1,,B,33`ga7mP00PBOt@Mg6ef4?v<2Dh:,0*5A
"
